[
  {
    "id": 72,
    "name": "Grotte (Ariège) - collines",
    "latitude": 43.0321887,
    "longitude": 1.2104898,
    "type": "cave",
    "address": "Grotte, D 215B, Montesquieu-Avantès, Saint-Girons, Ariège, France métropolitaine",
    "confidence": 0.8,
    "verified": false,
    "source": "osm_caves",
    "elevation": 480.0
  },
  {
    "id": 66,
    "name": "Grotte (Ariège) - plateau",
    "latitude": 43.1092239,
    "longitude": 0.9801859,
    "type": "cave",
    "address": "abrie préhistorique de Marsoulas, D 69, Cassagne, Saint-Gaudens, Haute-Garonne, France métropolitaine",
    "confidence": 0.8,
    "verified": false,
    "source": "osm_caves",
    "elevation": 334.0
  },
  {
    "id": 84,
    "name": "Grotte (Ariège) - plateau",
    "latitude": 43.1073266,
    "longitude": 0.9817702,
    "type": "cave",
    "address": "Grotte de Marsoulas, Ancien Chemin de Salies, Marsoulas, Saint-Gaudens, Haute-Garonne, France métropolitaine",
    "confidence": 0.8,
    "verified": false,
    "source": "osm_caves",
    "elevation": 327.0
  },
  {
    "id": 2133,
    "name": "Grotte (Ariège) alt. 1200.0m - montagne",
    "latitude": 43.0030634,
    "longitude": 1.0201519,
    "type": "cave",
    "address": "Fontaine de Cassagnous, Route forestière de l'Estélas, Le Pont, L'Hider, Cazavet, Saint-Girons",
    "confidence": 0.8,
    "verified": false,
    "source": "osm_caves",
    "elevation": 1200.0
  },
  {
    "id": 2140,
    "name": "Grotte (Ariège) alt. 1200.0m - montagne",
    "latitude": 43.0095609,
    "longitude": 0.9986938,
    "type": "cave",
    "address": "Grotte du Pas du Loup, Route forestière de l'Estélas, Le Pont, L'Hider, Cazavet, Saint-Girons",
    "confidence": 0.8,
    "verified": false,
    "source": "osm_caves",
    "elevation": 1200.0
  },
  {
    "id": 2141,
    "name": "Grotte (Ariège) alt. 1200.0m - montagne",
    "latitude": 43.0132227,
    "longitude": 1.0293136,
    "type": "cave",
    "address": "1 Lieu Dit le Peyort 09160 Cazavet",
    "confidence": 0.8,
    "verified": true,
    "source": "osm_caves",
    "elevation": 1200.0
  },
  {
    "id": 2160,
    "name": "Grotte (Ariège) alt. 1200.0m - montagne",
    "latitude": 43.11821,
    "longitude": 0.99638,
    "type": "cave",
    "address": "Route d'Escoulis 31260 Cassagne",
    "confidence": 0.8,
    "verified": true,
    "source": "osm_caves",
    "elevation": 1200.0
  },
  {
    "id": 2161,
    "name": "Grotte (Ariège) alt. 1200.0m - montagne",
    "latitude": 43.11395,
    "longitude": 0.99691,
    "type": "cave",
    "address": "GA306, Voie du Lens, Marsoulas, Saint-Gaudens, Haute-Garonne, France métropolitaine",
    "confidence": 0.8,
    "verified": false,
    "source": "osm_caves",
    "elevation": 1200.0
  },
  {
    "id": 2260,
    "name": "Grotte (Ariège) alt. 1200.0m - montagne",
    "latitude": 43.1408714,
    "longitude": 1.0311725,
    "type": "cave",
    "address": "Table d'orientation, D 26, Belbèze-en-Comminges, Saint-Gaudens, Haute-Garonne, France métropolitaine",
    "confidence": 0.8,
    "verified": false,
    "source": "osm_caves",
    "elevation": 1200.0
  },
  {
    "id": 2302,
    "name": "Grotte (Ariège) alt. 1200.0m - montagne",
    "latitude": 43.0131003,
    "longitude": 0.9733977,
    "type": "cave",
    "address": "L3, Chemin de Vallates, La Borie, Saleich, Saint-Gaudens, Haute-Garonne",
    "confidence": 0.8,
    "verified": false,
    "source": "osm_caves",
    "elevation": 1200.0
  },
  {
    "id": 2310,
    "name": "Grotte (Ariège) alt. 1200.0m - montagne",
    "latitude": 43.0309894,
    "longitude": 2.0004317,
    "type": "cave",
    "address": "La Tour 11230 Sonnac-sur-l'Hers",
    "confidence": 0.8,
    "verified": true,
    "source": "osm_caves",
    "elevation": 1200.0
  },
  {
    "id": 2334,
    "name": "Grotte (Ariège) alt. 1200.0m - montagne",
    "latitude": 43.0726916,
    "longitude": 0.8496536,
    "type": "cave",
    "address": "Grotte de Montepan, D 26, Graou, Ganties, Saint-Gaudens, Haute-Garonne",
    "confidence": 0.8,
    "verified": false,
    "source": "osm_caves",
    "elevation": 1200.0
  },
  {
    "id": 2363,
    "name": "Grotte (Ariège) alt. 1200.0m - montagne",
    "latitude": 43.0750839,
    "longitude": 0.8431809,
    "type": "cave",
    "address": "Grotte de Khépri, Route du Cap de Mourens, Montespan, Saint-Gaudens, Haute-Garonne, France métropolitaine",
    "confidence": 0.8,
    "verified": false,
    "source": "osm_caves",
    "elevation": 1200.0
  },
  {
    "id": 2364,
    "name": "Grotte (Ariège) alt. 1200.0m - montagne",
    "latitude": 43.0747097,
    "longitude": 0.8464211,
    "type": "cave",
    "address": "Spugo de Ganties, D 26, Graou, Ganties, Saint-Gaudens, Haute-Garonne",
    "confidence": 0.8,
    "verified": false,
    "source": "osm_caves",
    "elevation": 1200.0
  },
  {
    "id": 2378,
    "name": "Grotte (Ariège) alt. 1200.0m - montagne",
    "latitude": 43.0967669,
    "longitude": 1.0447612,
    "type": "cave",
    "address": "Grotte de Roquecourbière, D 35, Cérizols, Saint-Girons, Ariège, France métropolitaine",
    "confidence": 0.8,
    "verified": false,
    "source": "osm_caves",
    "elevation": 1200.0
  },
  {
    "id": 2385,
    "name": "Grotte (Ariège) alt. 1200.0m - montagne",
    "latitude": 43.0113825,
    "longitude": 0.9734648,
    "type": "cave",
    "address": "Grotte de Laspugues, Chemin de Vallates, La Borie, Saleich, Saint-Gaudens, Haute-Garonne",
    "confidence": 0.8,
    "verified": false,
    "source": "osm_caves",
    "elevation": 1200.0
  },
  {
    "id": 2470,
    "name": "Grotte (Ariège) alt. 1200.0m - montagne",
    "latitude": 43.0836146,
    "longitude": 1.1236188,
    "type": "cave",
    "address": "Grotte Papy, Chemin de La Moulette, Tourtouse, Saint-Girons, Ariège, France métropolitaine",
    "confidence": 0.8,
    "verified": false,
    "source": "osm_caves",
    "elevation": 1200.0
  },
  {
    "id": 2519,
    "name": "Grotte (Ariège) alt. 1200.0m - montagne",
    "latitude": 43.0768484,
    "longitude": 1.1494454,
    "type": "cave",
    "address": "Puits de la Vigne, Rue de Auby, Tourtouse, Saint-Girons, Ariège, France métropolitaine",
    "confidence": 0.8,
    "verified": false,
    "source": "osm_caves",
    "elevation": 1200.0
  },
  {
    "id": 2526,
    "name": "Grotte (Ariège) alt. 1200.0m - montagne",
    "latitude": 43.1442457,
    "longitude": 0.9357691,
    "type": "cave",
    "address": "283 Avenue de Toulouse 31360 Saint-Martory",
    "confidence": 0.8,
    "verified": true,
    "source": "osm_caves",
    "elevation": 1200.0
  },
  {
    "id": 2599,
    "name": "Grotte (Ariège) alt. 1200.0m - montagne",
    "latitude": 43.0322218,
    "longitude": 1.2116131,
    "type": "cave",
    "address": "Grotte des Trois Frères, D 215B, Montesquieu-Avantès, Saint-Girons, Ariège, France métropolitaine",
    "confidence": 0.8,
    "verified": false,
    "source": "osm_caves",
    "elevation": 1200.0
  },
  {
    "id": 2610,
    "name": "Grotte (Ariège) alt. 1200.0m - montagne",
    "latitude": 43.0187044,
    "longitude": 1.0278604,
    "type": "cave",
    "address": "Site archéologique de la grotte de Mongautin, Route de Cazavet, Les Hauts du Bernès, Prat, Bonrepaux, Prat-Bonrepaux",
    "confidence": 0.8,
    "verified": false,
    "source": "osm_caves",
    "elevation": 1200.0
  },
  {
    "id": 2612,
    "name": "Grotte (Ariège) alt. 1200.0m - montagne",
    "latitude": 43.0422319,
    "longitude": 1.1206208,
    "type": "cave",
    "address": "Lieu-Dit Grané 09190 Taurignan-Vieux",
    "confidence": 0.8,
    "verified": true,
    "source": "osm_caves",
    "elevation": 1200.0
  },
  {
    "id": 2613,
    "name": "Grotte (Ariège) alt. 1200.0m - montagne",
    "latitude": 43.0115153,
    "longitude": 1.0317363,
    "type": "cave",
    "address": "13 Hameau de l'Hider 09160 Cazavet",
    "confidence": 0.8,
    "verified": true,
    "source": "osm_caves",
    "elevation": 1200.0
  },
  {
    "id": 2616,
    "name": "Grotte (Ariège) alt. 1200.0m - montagne",
    "latitude": 43.0032073,
    "longitude": 1.0186154,
    "type": "cave",
    "address": "Gouffre de Cassagnous, Route forestière de l'Estélas, Le Pont, L'Hider, Cazavet, Saint-Girons",
    "confidence": 0.8,
    "verified": false,
    "source": "osm_caves",
    "elevation": 1200.0
  },
  {
    "id": 2620,
    "name": "Grotte (Ariège) alt. 1200.0m - montagne",
    "latitude": 43.0086895,
    "longitude": 1.0422878,
    "type": "cave",
    "address": "2 Chemin de Houillet 09160 Cazavet",
    "confidence": 0.8,
    "verified": true,
    "source": "osm_caves",
    "elevation": 1200.0
  },
  {
    "id": 2648,
    "name": "Grotte (Ariège) alt. 1200.0m - montagne",
    "latitude": 43.0281975,
    "longitude": 1.2525127,
    "type": "cave",
    "address": "Chemin de Cabosse, La Goutte, Lescure, Saint-Girons, Ariège, France métropolitaine",
    "confidence": 0.8,
    "verified": false,
    "source": "osm_caves",
    "elevation": 1200.0
  },
  {
    "id": 2649,
    "name": "Grotte (Ariège) alt. 1200.0m - montagne",
    "latitude": 43.0335701,
    "longitude": 1.2076437,
    "type": "cave",
    "address": "Perte du Malet, D 215B, Montesquieu-Avantès, Saint-Girons, Ariège, France métropolitaine",
    "confidence": 0.8,
    "verified": false,
    "source": "osm_caves",
    "elevation": 1200.0
  },
  {
    "id": 2657,
    "name": "Grotte (Ariège) alt. 1200.0m - montagne",
    "latitude": 43.0318913,
    "longitude": 1.2126786,
    "type": "cave",
    "address": "Perte du Volp, D 215B, Montesquieu-Avantès, Saint-Girons, Ariège, France métropolitaine",
    "confidence": 0.8,
    "verified": false,
    "source": "osm_caves",
    "elevation": 1200.0
  },
  {
    "id": 81,
    "name": "Grotte (Aveyron) près de Chemin (Causses) - plateau",
    "latitude": 44.4424181,
    "longitude": 1.9405389,
    "type": "cave",
    "address": "114 Chemin de Vialatelle 12260 La Capelle-Balaguier",
    "confidence": 0.8,
    "verified": false,
    "source": "osm_caves",
    "elevation": 385.0
  },
  {
    "id": 2176,
    "name": "Grotte (Causses) (Aveyron) - collines",
    "latitude": 44.4312737,
    "longitude": 2.4294497,
    "type": "cave",
    "address": "Abri troglodyte, D 257, Lotissement le Chêne, Nuces, Clairvaux-d'Aveyron, Rodez",
    "confidence": 0.8,
    "verified": false,
    "source": "osm_caves",
    "elevation": 450.0
  },
  {
    "id": 2191,
    "name": "Grotte (Causses) (Aveyron) - collines",
    "latitude": 44.359014,
    "longitude": 1.8263223,
    "type": "cave",
    "address": "Igue du Père-Noël, Chemin du Pesquié, Promilhanes, Cahors, Lot, France métropolitaine",
    "confidence": 0.8,
    "verified": false,
    "source": "osm_caves",
    "elevation": 450.0
  },
  {
    "id": 2212,
    "name": "Grotte (Causses) (Aveyron) - collines",
    "latitude": 44.3818111,
    "longitude": 1.8513103,
    "type": "cave",
    "address": "Igue del Garrel, D 911, Mas de Toty, Promilhanes, Cahors, Lot",
    "confidence": 0.8,
    "verified": false,
    "source": "osm_caves",
    "elevation": 450.0
  },
  {
    "id": 2222,
    "name": "Grotte (Causses) (Aveyron) - collines",
    "latitude": 44.4107631,
    "longitude": 1.9071772,
    "type": "cave",
    "address": "Cloup des Gleyettes, Chemin de Lespinassiére, L'Espinassière, Martiel, Villefranche-de-Rouergue, Aveyron",
    "confidence": 0.8,
    "verified": false,
    "source": "osm_caves",
    "elevation": 450.0
  },
  {
    "id": 2293,
    "name": "Grotte (Causses) (Aveyron) - collines",
    "latitude": 44.0889054,
    "longitude": 1.8676156,
    "type": "cave",
    "address": "Perte de Cloup, Le Combal, Marnaves, Albi, Tarn, France métropolitaine",
    "confidence": 0.8,
    "verified": false,
    "source": "osm_caves",
    "elevation": 450.0
  },
  {
    "id": 2303,
    "name": "Grotte (Causses) (Aveyron) - collines",
    "latitude": 44.1336779,
    "longitude": 1.8618276,
    "type": "cave",
    "address": "Igues des Landes, Route de Montrosier, Milhars, Albi, Tarn, France métropolitaine",
    "confidence": 0.8,
    "verified": false,
    "source": "osm_caves",
    "elevation": 450.0
  },
  {
    "id": 2307,
    "name": "Grotte (Causses) (Aveyron) - collines",
    "latitude": 44.3760231,
    "longitude": 1.807493,
    "type": "cave",
    "address": "igue de la leoune, Chemin les Plassals, Promilhanes, Cahors, Lot, France métropolitaine",
    "confidence": 0.8,
    "verified": false,
    "source": "osm_caves",
    "elevation": 450.0
  },
  {
    "id": 2325,
    "name": "Grotte (Causses) (Aveyron) - collines",
    "latitude": 44.2036835,
    "longitude": 2.1397832,
    "type": "cave",
    "address": "Applond rocheux, Chemin des Clots, Flauzins, Lescure-Jaoul, Villefranche-de-Rouergue, Aveyron",
    "confidence": 0.8,
    "verified": false,
    "source": "osm_caves",
    "elevation": 450.0
  },
  {
    "id": 2387,
    "name": "Grotte (Causses) (Aveyron) - collines",
    "latitude": 44.439872,
    "longitude": 2.4686676,
    "type": "cave",
    "address": "70 Chemin du Four a Pain 12330 Salles-la-Source",
    "confidence": 0.8,
    "verified": true,
    "source": "osm_caves",
    "elevation": 450.0
  },
  {
    "id": 2388,
    "name": "Grotte (Causses) (Aveyron) - collines",
    "latitude": 44.4441994,
    "longitude": 1.8674481,
    "type": "cave",
    "address": "Trou du Furet, Route de Lacombe, Lacombe, Salvagnac-Cajarc, Villefranche-de-Rouergue, Aveyron",
    "confidence": 0.8,
    "verified": false,
    "source": "osm_caves",
    "elevation": 450.0
  },
  {
    "id": 2389,
    "name": "Grotte (Causses) (Aveyron) - collines",
    "latitude": 44.4485953,
    "longitude": 1.8927068,
    "type": "cave",
    "address": "Igue des Menuisiers, Route de Laval, Lacombe, Salvagnac-Cajarc, Villefranche-de-Rouergue, Aveyron",
    "confidence": 0.8,
    "verified": false,
    "source": "osm_caves",
    "elevation": 450.0
  },
  {
    "id": 2390,
    "name": "Grotte (Causses) (Aveyron) - collines",
    "latitude": 44.474732,
    "longitude": 1.9577379,
    "type": "cave",
    "address": "Gléïo de Maôu (grotte), Chemin de la Bedrune, Montsalès, Villefranche-de-Rouergue, Aveyron, France métropolitaine",
    "confidence": 0.8,
    "verified": false,
    "source": "osm_caves",
    "elevation": 450.0
  },
  {
    "id": 2391,
    "name": "Grotte (Causses) (Aveyron) - collines",
    "latitude": 44.4840445,
    "longitude": 1.9131711,
    "type": "cave",
    "address": "Grotte des Corbeaux, Route du Saut de la Mounine, Saujac, Villefranche-de-Rouergue, Aveyron, France métropolitaine",
    "confidence": 0.8,
    "verified": false,
    "source": "osm_caves",
    "elevation": 450.0
  },
  {
    "id": 2397,
    "name": "Grotte (Causses) (Aveyron) - collines",
    "latitude": 44.4299843,
    "longitude": 2.42942,
    "type": "cave",
    "address": "1 Route de Panat 12330 Clairvaux-d'Aveyron",
    "confidence": 0.8,
    "verified": true,
    "source": "osm_caves",
    "elevation": 450.0
  },
  {
    "id": 2398,
    "name": "Grotte (Causses) (Aveyron) - collines",
    "latitude": 44.3146745,
    "longitude": 1.9655803,
    "type": "cave",
    "address": "Grotte de Fonclause, Chemin de Fonclause, La Rouquette, Villefranche-de-Rouergue, Aveyron, France métropolitaine",
    "confidence": 0.8,
    "verified": false,
    "source": "osm_caves",
    "elevation": 450.0
  },
  {
    "id": 2503,
    "name": "Grotte (Causses) (Aveyron) - collines",
    "latitude": 44.3552193,
    "longitude": 1.8781338,
    "type": "cave",
    "address": "56 Place du Prieuré 46260 Laramière",
    "confidence": 0.8,
    "verified": true,
    "source": "osm_caves",
    "elevation": 450.0
  },
  {
    "id": 2509,
    "name": "Grotte (Causses) (Aveyron) - collines",
    "latitude": 44.3873883,
    "longitude": 1.8797128,
    "type": "cave",
    "address": "649 chemin des moulins 12200 Martiel",
    "confidence": 0.8,
    "verified": true,
    "source": "osm_caves",
    "elevation": 450.0
  },
  {
    "id": 2559,
    "name": "Grotte (Causses) (Aveyron) - collines",
    "latitude": 44.3864365,
    "longitude": 1.9287841,
    "type": "cave",
    "address": "92 rue de l'étang 12200 Martiel",
    "confidence": 0.8,
    "verified": true,
    "source": "osm_caves",
    "elevation": 450.0
  },
  {
    "id": 2641,
    "name": "Grotte (Causses) (Aveyron) - collines",
    "latitude": 44.0503785,
    "longitude": 1.9282938,
    "type": "cave",
    "address": "grotte d'amarens, Chemin de la Mailhoulié, La Mailhoulie, Amarens, Albi, Tarn",
    "confidence": 0.8,
    "verified": false,
    "source": "osm_caves",
    "elevation": 450.0
  },
  {
    "id": 2642,
    "name": "Grotte (Causses) (Aveyron) - collines",
    "latitude": 44.4287057,
    "longitude": 2.4359872,
    "type": "cave",
    "address": "Grotte n°2 de Panat, Route de Panat, Panat, Clairvaux-d'Aveyron, Rodez, Aveyron",
    "confidence": 0.8,
    "verified": false,
    "source": "osm_caves",
    "elevation": 450.0
  },
  {
    "id": 2664,
    "name": "Grotte (Causses) (Aveyron) - collines",
    "latitude": 44.335368,
    "longitude": 1.9620453,
    "type": "cave",
    "address": "439 Route de la Roque 12200 La Rouquette",
    "confidence": 0.8,
    "verified": true,
    "source": "osm_caves",
    "elevation": 450.0
  },
  {
    "id": 65,
    "name": "Grotte (Causses) (Aveyron) - plateau",
    "latitude": 44.4547991,
    "longitude": 1.8424713,
    "type": "cave",
    "address": "Trou, 10m, Route de Lantouy, Salvagnac-Cajarc, Villefranche-de-Rouergue, Aveyron",
    "confidence": 0.8,
    "verified": false,
    "source": "osm_caves",
    "elevation": 290.0
  },
  {
    "id": 68,
    "name": "Grotte (Gers) près de Lectoure (Vallée de la Garonne) - plateau",
    "latitude": 43.9249417,
    "longitude": 0.6776226,
    "type": "cave",
    "address": "1 Route de Tané 32700 Lectoure",
    "confidence": 0.8,
    "verified": false,
    "source": "osm_caves",
    "elevation": 201.0
  },
  {
    "id": 2232,
    "name": "Grotte (Haute-Garonne) - plateau",
    "latitude": 43.0330823,
    "longitude": 0.5402254,
    "type": "cave",
    "address": "chemin d'Arguillon, d'Agos, Labat, Saint-Bertrand-de-Comminges, Saint-Gaudens, Haute-Garonne",
    "confidence": 0.8,
    "verified": false,
    "source": "osm_caves",
    "elevation": 400.0
  },
  {
    "id": 2299,
    "name": "Grotte (Haute-Garonne) - plateau",
    "latitude": 43.0421022,
    "longitude": 0.5056645,
    "type": "cave",
    "address": "Perte de Ganties, Chemin de Montcabiro, Lombrès, Bagnères-de-Bigorre, Hautes-Pyrénées, France métropolitaine",
    "confidence": 0.8,
    "verified": false,
    "source": "osm_caves",
    "elevation": 400.0
  },
  {
    "id": 2361,
    "name": "Grotte (Haute-Garonne) - plateau",
    "latitude": 43.0444855,
    "longitude": 0.688592,
    "type": "cave",
    "address": "Trou de Stef, D 34, Lôo, Sauveterre-de-Comminges, Saint-Gaudens, Haute-Garonne",
    "confidence": 0.8,
    "verified": false,
    "source": "osm_caves",
    "elevation": 400.0
  },
  {
    "id": 2362,
    "name": "Grotte (Haute-Garonne) - plateau",
    "latitude": 43.00341,
    "longitude": 0.6395428,
    "type": "cave",
    "address": "Perte et doline de Seube, N 125, La Naou, Galié, Saint-Gaudens, Haute-Garonne",
    "confidence": 0.8,
    "verified": false,
    "source": "osm_caves",
    "elevation": 400.0
  },
  {
    "id": 2501,
    "name": "Grotte (Haute-Garonne) - plateau",
    "latitude": 43.0063269,
    "longitude": 0.5071293,
    "type": "cave",
    "address": "Gouffre de Mont Caup, Vallée de l'Arize, Lompre, Nistos, Bagnères-de-Bigorre, Hautes-Pyrénées",
    "confidence": 0.8,
    "verified": false,
    "source": "osm_caves",
    "elevation": 400.0
  },
  {
    "id": 2600,
    "name": "Grotte (Haute-Garonne) - plateau",
    "latitude": 43.0004417,
    "longitude": 0.5548356,
    "type": "cave",
    "address": "Gouffre, Route du Col, Gaudent, Bagnères-de-Bigorre, Hautes-Pyrénées, France métropolitaine",
    "confidence": 0.8,
    "verified": false,
    "source": "osm_caves",
    "elevation": 400.0
  },
  {
    "id": 2608,
    "name": "Grotte (Haute-Garonne) - plateau",
    "latitude": 43.055571,
    "longitude": 0.5362887,
    "type": "cave",
    "address": "1010 Route de Gargas 65660 Aventignan",
    "confidence": 0.8,
    "verified": true,
    "source": "osm_caves",
    "elevation": 400.0
  },
  {
    "id": 2647,
    "name": "Grotte (Haute-Garonne) - plateau",
    "latitude": 43.0564597,
    "longitude": 0.5373662,
    "type": "cave",
    "address": "1010 Route de Gargas 65660 Aventignan",
    "confidence": 0.8,
    "verified": true,
    "source": "osm_caves",
    "elevation": 400.0
  },
  {
    "id": 2658,
    "name": "Grotte (Haute-Garonne) - plateau",
    "latitude": 43.0145884,
    "longitude": 0.7347175,
    "type": "cave",
    "address": "Grotte de la Maoure, Chemin de Toucaouet, Arbon, Saint-Gaudens, Haute-Garonne, France métropolitaine",
    "confidence": 0.8,
    "verified": false,
    "source": "osm_caves",
    "elevation": 400.0
  },
  {
    "id": 74,
    "name": "Grotte (Haute-Garonne) près de Avenue - plateau",
    "latitude": 43.1184821,
    "longitude": 0.9624502,
    "type": "cave",
    "address": "11 Avenue des Pyrénées 31260 Mazères-sur-Salat",
    "confidence": 0.8,
    "verified": false,
    "source": "osm_caves",
    "elevation": 354.0
  },
  {
    "id": 80,
    "name": "Grotte (Lot) près de Caunhe (Causses) - plateau",
    "latitude": 44.4917589,
    "longitude": 1.8361341,
    "type": "cave",
    "address": "57 Rue de la Caunhe 46160 Cajarc",
    "confidence": 0.8,
    "verified": false,
    "source": "osm_caves",
    "elevation": 269.0
  },
  {
    "id": 69,
    "name": "Grotte (Lot) près de Chemin (Causses) - plateau",
    "latitude": 44.4609336,
    "longitude": 1.8422298,
    "type": "cave",
    "address": "39 Chemin de Gayfié 46260 Saint-Jean-de-Laur",
    "confidence": 0.8,
    "verified": false,
    "source": "osm_caves",
    "elevation": 236.0
  },
  {
    "id": 70,
    "name": "Grotte (Lot) près de Touzac (Vallée de la Lot) - plaine",
    "latitude": 44.4979347,
    "longitude": 1.0668679,
    "type": "cave",
    "address": "1391 Route du Lot 46700 Touzac",
    "confidence": 0.8,
    "verified": false,
    "source": "osm_caves",
    "elevation": 78.0
  },
  {
    "id": 83,
    "name": "Grotte (Montagne Noire) (Tarn) - collines",
    "latitude": 43.5354588,
    "longitude": 2.4824151,
    "type": "cave",
    "address": "Route d'Anglès, Ventenac, Le Vintrou, Castres, Tarn, France métropolitaine",
    "confidence": 0.8,
    "verified": false,
    "source": "osm_caves",
    "elevation": 687.0
  },
  {
    "id": 85,
    "name": "Grotte (Montagne Noire) (Tarn) - collines",
    "latitude": 43.4457839,
    "longitude": 2.0878092,
    "type": "cave",
    "address": "Trou du Calel, Route d'Arfons, La Bouriette, Sorèze, Castres, Tarn",
    "confidence": 0.8,
    "verified": false,
    "source": "osm_caves",
    "elevation": 523.0
  },
  {
    "id": 2112,
    "name": "Grotte (Montagne Noire) (Tarn) - collines",
    "latitude": 43.5713612,
    "longitude": 2.4256661,
    "type": "cave",
    "address": "Grotte de Malcrouzet, Route d'Augmontel à Anglès, La Peyrarque Haute, Boissezon, Castres, Tarn",
    "confidence": 0.8,
    "verified": false,
    "source": "osm_caves",
    "elevation": 650.0
  },
  {
    "id": 2326,
    "name": "Grotte (Montagne Noire) (Tarn) - collines",
    "latitude": 43.536913,
    "longitude": 2.2899,
    "type": "cave",
    "address": "Grotte de Pisse-Lièvre, Chemin du Gua, Le Ga, Labruguière, Castres, Tarn",
    "confidence": 0.8,
    "verified": false,
    "source": "osm_caves",
    "elevation": 650.0
  },
  {
    "id": 2345,
    "name": "Grotte (Montagne Noire) (Tarn) - collines",
    "latitude": 43.5225193,
    "longitude": 2.2886742,
    "type": "cave",
    "address": "836 Route d'En Sire 81290 Labruguière",
    "confidence": 0.8,
    "verified": true,
    "source": "osm_caves",
    "elevation": 650.0
  },
  {
    "id": 2348,
    "name": "Grotte (Montagne Noire) (Tarn) - collines",
    "latitude": 43.4403714,
    "longitude": 2.0765407,
    "type": "cave",
    "address": "B 15, Chemin de Berniquaut, Durfort, Castres, Tarn, France métropolitaine",
    "confidence": 0.8,
    "verified": false,
    "source": "osm_caves",
    "elevation": 650.0
  },
  {
    "id": 2368,
    "name": "Grotte (Montagne Noire) (Tarn) - collines",
    "latitude": 43.5006459,
    "longitude": 2.3282627,
    "type": "cave",
    "address": "5 Chemin des Lavandières 81200 Aiguefonde",
    "confidence": 0.8,
    "verified": true,
    "source": "osm_caves",
    "elevation": 650.0
  },
  {
    "id": 2392,
    "name": "Grotte (Montagne Noire) (Tarn) - collines",
    "latitude": 43.4417765,
    "longitude": 2.0746639,
    "type": "cave",
    "address": "Soreze - berniquaut, Chemin de Berniquaut, Sorèze, Castres, Tarn, France métropolitaine",
    "confidence": 0.8,
    "verified": false,
    "source": "osm_caves",
    "elevation": 650.0
  },
  {
    "id": 2495,
    "name": "Grotte (Montagne Noire) (Tarn) - collines",
    "latitude": 43.4837239,
    "longitude": 2.1733617,
    "type": "cave",
    "address": "Grotte de la Frayssinette, Bike Parc Massaguel, La Pouzaque, Verdalle, Castres, Tarn",
    "confidence": 0.8,
    "verified": false,
    "source": "osm_caves",
    "elevation": 650.0
  },
  {
    "id": 2496,
    "name": "Grotte (Montagne Noire) (Tarn) - collines",
    "latitude": 43.475838,
    "longitude": 2.147484,
    "type": "cave",
    "address": "30 Allée de Saint Stapin 81110 Dourgne",
    "confidence": 0.8,
    "verified": true,
    "source": "osm_caves",
    "elevation": 650.0
  },
  {
    "id": 2597,
    "name": "Grotte (Montagne Noire) (Tarn) - collines",
    "latitude": 43.539639,
    "longitude": 2.4851348,
    "type": "cave",
    "address": "Route d'Anglès, Ventenac, Le Vintrou, Castres, Tarn, France métropolitaine",
    "confidence": 0.8,
    "verified": false,
    "source": "osm_caves",
    "elevation": 650.0
  },
  {
    "id": 2598,
    "name": "Grotte (Montagne Noire) (Tarn) - collines",
    "latitude": 43.5378269,
    "longitude": 2.4835505,
    "type": "cave",
    "address": "Route d’Anglès 81240 Le Vintrou",
    "confidence": 0.8,
    "verified": true,
    "source": "osm_caves",
    "elevation": 650.0
  },
  {
    "id": 2627,
    "name": "Grotte (Montagne Noire) (Tarn) - collines",
    "latitude": 43.4413695,
    "longitude": 2.0759573,
    "type": "cave",
    "address": "B 14, Chemin de Berniquaut, Durfort, Castres, Tarn, France métropolitaine",
    "confidence": 0.8,
    "verified": false,
    "source": "osm_caves",
    "elevation": 650.0
  },
  {
    "id": 2637,
    "name": "Grotte (Montagne Noire) (Tarn) - collines",
    "latitude": 43.4464935,
    "longitude": 2.1089833,
    "type": "cave",
    "address": "Cap du Pal, Saint-Amancet, Castres, Tarn, France métropolitaine, 81110",
    "confidence": 0.8,
    "verified": false,
    "source": "osm_caves",
    "elevation": 650.0
  },
  {
    "id": 2639,
    "name": "Grotte (Montagne Noire) (Tarn) - collines",
    "latitude": 43.6130958,
    "longitude": 2.3295375,
    "type": "cave",
    "address": "183 Route de La Grotte Saint-Dominique 81100 Burlats",
    "confidence": 0.8,
    "verified": true,
    "source": "osm_caves",
    "elevation": 650.0
  },
  {
    "id": 86,
    "name": "Grotte (Pyrénées) (Ariège) - collines",
    "latitude": 42.8172711,
    "longitude": 1.5949898,
    "type": "cave",
    "address": "Grotte de la Petite Caougno, D 56, La Pujade, Niaux, Foix, Ariège",
    "confidence": 0.8,
    "verified": false,
    "source": "osm_caves",
    "elevation": 707.0
  },
  {
    "id": 2100,
    "name": "Grotte (Pyrénées) (Ariège) alt. 850.0m - montagne",
    "latitude": 42.853184,
    "longitude": 2.0700534,
    "type": "cave",
    "address": "Grotte du Coulet d'en Seguy, Chemin Rural du Pla de l'Agre à Belvis, Belvis, Limoux, Aude, France métropolitaine",
    "confidence": 0.8,
    "verified": false,
    "source": "osm_caves",
    "elevation": 850.0
  },
  {
    "id": 2101,
    "name": "Grotte (Pyrénées) (Ariège) alt. 850.0m - montagne",
    "latitude": 42.9996986,
    "longitude": 0.9996747,
    "type": "cave",
    "address": "Grotte de Montespan, Route forestière de l'Estélas, Le Pont, L'Hider, Cazavet, Saint-Girons",
    "confidence": 0.8,
    "verified": false,
    "source": "osm_caves",
    "elevation": 850.0
  },
  {
    "id": 2114,
    "name": "Grotte (Pyrénées) (Ariège) alt. 850.0m - montagne",
    "latitude": 42.8621179,
    "longitude": 2.1096216,
    "type": "cave",
    "address": "Perte du Ruisseau de l'Agre n°1, Route de Quillan / Route des Sapins, Lapeyre, Belvis, Limoux, Aude",
    "confidence": 0.8,
    "verified": false,
    "source": "osm_caves",
    "elevation": 850.0
  },
  {
    "id": 2115,
    "name": "Grotte (Pyrénées) (Ariège) alt. 850.0m - montagne",
    "latitude": 42.8610497,
    "longitude": 2.098011,
    "type": "cave",
    "address": "Trou de l'Agre n°05, Route de Quillan / Route des Sapins, Lapeyre, Belvis, Limoux, Aude",
    "confidence": 0.8,
    "verified": false,
    "source": "osm_caves",
    "elevation": 850.0
  },
  {
    "id": 2116,
    "name": "Grotte (Pyrénées) (Ariège) alt. 850.0m - montagne",
    "latitude": 42.8643558,
    "longitude": 2.1001324,
    "type": "cave",
    "address": "Trou de l'Agre n°09, Route des Sapins, Les Prats del Naut, Coudons, Limoux, Aude",
    "confidence": 0.8,
    "verified": false,
    "source": "osm_caves",
    "elevation": 850.0
  },
  {
    "id": 2117,
    "name": "Grotte (Pyrénées) (Ariège) alt. 850.0m - montagne",
    "latitude": 42.8616706,
    "longitude": 2.1059708,
    "type": "cave",
    "address": "Trou de l'Agre n°03, Route de Quillan / Route des Sapins, Lapeyre, Belvis, Limoux, Aude",
    "confidence": 0.8,
    "verified": false,
    "source": "osm_caves",
    "elevation": 850.0
  },
  {
    "id": 2118,
    "name": "Grotte (Pyrénées) (Ariège) alt. 850.0m - montagne",
    "latitude": 42.8676091,
    "longitude": 2.0889119,
    "type": "cave",
    "address": "Trou de l'Agre n°16, Route des Sapins, Belvis, Limoux, Aude, France métropolitaine",
    "confidence": 0.8,
    "verified": false,
    "source": "osm_caves",
    "elevation": 850.0
  },
  {
    "id": 2119,
    "name": "Grotte (Pyrénées) (Ariège) alt. 850.0m - montagne",
    "latitude": 42.8618538,
    "longitude": 2.110713,
    "type": "cave",
    "address": "Trou de l'Agre n°08, Route de Quillan / Route des Sapins, Lapeyre, Belvis, Limoux, Aude",
    "confidence": 0.8,
    "verified": false,
    "source": "osm_caves",
    "elevation": 850.0
  },
  {
    "id": 2120,
    "name": "Grotte (Pyrénées) (Ariège) alt. 850.0m - montagne",
    "latitude": 42.8816177,
    "longitude": 1.9869188,
    "type": "cave",
    "address": "Trou du Sarat de l'Agre n°1, Route des Sapins, Roquefeuil, Limoux, Aude, France métropolitaine",
    "confidence": 0.8,
    "verified": false,
    "source": "osm_caves",
    "elevation": 850.0
  },
  {
    "id": 2122,
    "name": "Grotte (Pyrénées) (Ariège) alt. 850.0m - montagne",
    "latitude": 42.9695686,
    "longitude": 0.876792,
    "type": "cave",
    "address": "Gouffre Blagnac, D 13b, Sarrat de Bouch, Herran, Saint-Gaudens, Haute-Garonne",
    "confidence": 0.8,
    "verified": false,
    "source": "osm_caves",
    "elevation": 850.0
  },
  {
    "id": 2124,
    "name": "Grotte (Pyrénées) (Ariège) alt. 850.0m - montagne",
    "latitude": 42.992794,
    "longitude": 1.468626,
    "type": "cave",
    "address": "D 21, Blanque, Alzen, Saint-Girons, Ariège, France métropolitaine",
    "confidence": 0.8,
    "verified": false,
    "source": "osm_caves",
    "elevation": 850.0
  },
  {
    "id": 2129,
    "name": "Grotte (Pyrénées) (Ariège) alt. 850.0m - montagne",
    "latitude": 42.8034198,
    "longitude": 1.3650038,
    "type": "cave",
    "address": "Gouffre Georges (entrée historique), D 8F, Le Port, Saint-Girons, Ariège, France métropolitaine",
    "confidence": 0.8,
    "verified": false,
    "source": "osm_caves",
    "elevation": 850.0
  },
  {
    "id": 2130,
    "name": "Grotte (Pyrénées) (Ariège) alt. 850.0m - montagne",
    "latitude": 42.9744041,
    "longitude": 0.8767507,
    "type": "cave",
    "address": "Gouffre du Pont de Gerbaut Supérieur, Sentier des Chèvres, Herran, Saint-Gaudens, Haute-Garonne, France métropolitaine",
    "confidence": 0.8,
    "verified": false,
    "source": "osm_caves",
    "elevation": 850.0
  },
  {
    "id": 2136,
    "name": "Grotte (Pyrénées) (Ariège) alt. 850.0m - montagne",
    "latitude": 42.8779814,
    "longitude": 2.047292,
    "type": "cave",
    "address": "Grotte du Maquis, Sentier Cathare, L'Escale, Puivert, Limoux, Aude",
    "confidence": 0.8,
    "verified": false,
    "source": "osm_caves",
    "elevation": 850.0
  },
  {
    "id": 2138,
    "name": "Grotte (Pyrénées) (Ariège) alt. 850.0m - montagne",
    "latitude": 42.8406948,
    "longitude": 1.8921463,
    "type": "cave",
    "address": "Aven, Route des Sapins, Comus, Limoux, Aude, France métropolitaine",
    "confidence": 0.8,
    "verified": false,
    "source": "osm_caves",
    "elevation": 850.0
  },
  {
    "id": 2142,
    "name": "Grotte (Pyrénées) (Ariège) alt. 850.0m - montagne",
    "latitude": 42.8927899,
    "longitude": 1.2291938,
    "type": "cave",
    "address": "Ancien piège à loups, 16, Soueix, Oust, Saint-Girons, Ariège",
    "confidence": 0.8,
    "verified": false,
    "source": "osm_caves",
    "elevation": 850.0
  },
  {
    "id": 2143,
    "name": "Grotte (Pyrénées) (Ariège) alt. 850.0m - montagne",
    "latitude": 42.8226382,
    "longitude": 1.6242366,
    "type": "cave",
    "address": "57 Les Bains 09400 Ornolac-Ussat-les-Bains",
    "confidence": 0.8,
    "verified": true,
    "source": "osm_caves",
    "elevation": 850.0
  },
  {
    "id": 2145,
    "name": "Grotte (Pyrénées) (Ariège) alt. 850.0m - montagne",
    "latitude": 42.9660548,
    "longitude": 0.8693427,
    "type": "cave",
    "address": "Gouffre des Indomptables, Sentier des Chèvres, Herran, Saint-Gaudens, Haute-Garonne, France métropolitaine",
    "confidence": 0.8,
    "verified": false,
    "source": "osm_caves",
    "elevation": 850.0
  },
  {
    "id": 2146,
    "name": "Grotte (Pyrénées) (Ariège) alt. 850.0m - montagne",
    "latitude": 42.7959501,
    "longitude": 1.4057233,
    "type": "cave",
    "address": "D 18, Le Port, Saint-Girons, Ariège, France métropolitaine, 09320",
    "confidence": 0.8,
    "verified": false,
    "source": "osm_caves",
    "elevation": 850.0
  },
  {
    "id": 2152,
    "name": "Grotte (Pyrénées) (Ariège) alt. 850.0m - montagne",
    "latitude": 42.8204125,
    "longitude": 1.075881,
    "type": "cave",
    "address": "Téléphone d'urgence montagne, Balis. J, Bethmale, Saint-Girons, Ariège, France métropolitaine",
    "confidence": 0.8,
    "verified": false,
    "source": "osm_caves",
    "elevation": 850.0
  },
  {
    "id": 2154,
    "name": "Grotte (Pyrénées) (Ariège) alt. 850.0m - montagne",
    "latitude": 42.838235,
    "longitude": 1.5749947,
    "type": "cave",
    "address": "Galerie de mine, D 508, Génat, Foix, Ariège, France métropolitaine",
    "confidence": 0.8,
    "verified": false,
    "source": "osm_caves",
    "elevation": 850.0
  },
  {
    "id": 2155,
    "name": "Grotte (Pyrénées) (Ariège) alt. 850.0m - montagne",
    "latitude": 42.8358551,
    "longitude": 1.5687063,
    "type": "cave",
    "address": "Perte, D 508, Génat, Foix, Ariège, France métropolitaine",
    "confidence": 0.8,
    "verified": false,
    "source": "osm_caves",
    "elevation": 850.0
  },
  {
    "id": 2156,
    "name": "Grotte (Pyrénées) (Ariège) alt. 850.0m - montagne",
    "latitude": 42.8194226,
    "longitude": 1.5869049,
    "type": "cave",
    "address": "Spoulga d'Alliat, Rue du Cantou, Alliat, Foix, Ariège, France métropolitaine",
    "confidence": 0.8,
    "verified": false,
    "source": "osm_caves",
    "elevation": 850.0
  },
  {
    "id": 2157,
    "name": "Grotte (Pyrénées) (Ariège) alt. 850.0m - montagne",
    "latitude": 42.8220284,
    "longitude": 1.5879809,
    "type": "cave",
    "address": "1405 Route du Montcalm 09400 Niaux",
    "confidence": 0.8,
    "verified": true,
    "source": "osm_caves",
    "elevation": 850.0
  },
  {
    "id": 2158,
    "name": "Grotte (Pyrénées) (Ariège) alt. 850.0m - montagne",
    "latitude": 42.8256307,
    "longitude": 1.5891855,
    "type": "cave",
    "address": "1759 Route du Montcalm 09400 Niaux",
    "confidence": 0.8,
    "verified": true,
    "source": "osm_caves",
    "elevation": 850.0
  },
  {
    "id": 2159,
    "name": "Grotte (Pyrénées) (Ariège) alt. 850.0m - montagne",
    "latitude": 42.9432241,
    "longitude": 0.8828126,
    "type": "cave",
    "address": "28 Escarchein 09800 Galey",
    "confidence": 0.8,
    "verified": true,
    "source": "osm_caves",
    "elevation": 850.0
  },
  {
    "id": 2162,
    "name": "Grotte (Pyrénées) (Ariège) alt. 850.0m - montagne",
    "latitude": 42.7989627,
    "longitude": 1.3800674,
    "type": "cave",
    "address": "D 18, Le Port, Saint-Girons, Ariège, France métropolitaine, 09320",
    "confidence": 0.8,
    "verified": false,
    "source": "osm_caves",
    "elevation": 850.0
  },
  {
    "id": 2165,
    "name": "Grotte (Pyrénées) (Ariège) alt. 850.0m - montagne",
    "latitude": 42.8603291,
    "longitude": 1.0795214,
    "type": "cave",
    "address": "Bethmale, Saint-Girons, Ariège, France métropolitaine, 09800, France",
    "confidence": 0.8,
    "verified": false,
    "source": "osm_caves",
    "elevation": 850.0
  },
  {
    "id": 2171,
    "name": "Grotte (Pyrénées) (Ariège) alt. 850.0m - montagne",
    "latitude": 42.789755,
    "longitude": 1.4015109,
    "type": "cave",
    "address": "Puits, D 8F, Aulus-les-Bains, Saint-Girons, Ariège, France métropolitaine",
    "confidence": 0.8,
    "verified": false,
    "source": "osm_caves",
    "elevation": 850.0
  },
  {
    "id": 2172,
    "name": "Grotte (Pyrénées) (Ariège) alt. 850.0m - montagne",
    "latitude": 42.7869777,
    "longitude": 1.4028711,
    "type": "cave",
    "address": "Puits SN, D 8F, Aulus-les-Bains, Saint-Girons, Ariège, France métropolitaine",
    "confidence": 0.8,
    "verified": false,
    "source": "osm_caves",
    "elevation": 850.0
  },
  {
    "id": 2173,
    "name": "Grotte (Pyrénées) (Ariège) alt. 850.0m - montagne",
    "latitude": 42.7845647,
    "longitude": 1.4029712,
    "type": "cave",
    "address": "Gouffre Sheep, D 8F, Aulus-les-Bains, Saint-Girons, Ariège, France métropolitaine",
    "confidence": 0.8,
    "verified": false,
    "source": "osm_caves",
    "elevation": 850.0
  },
  {
    "id": 2175,
    "name": "Grotte (Pyrénées) (Ariège) alt. 850.0m - montagne",
    "latitude": 42.7865686,
    "longitude": 1.4038239,
    "type": "cave",
    "address": "Gouffre Sheep, D 8F, Aulus-les-Bains, Saint-Girons, Ariège, France métropolitaine",
    "confidence": 0.8,
    "verified": false,
    "source": "osm_caves",
    "elevation": 850.0
  },
  {
    "id": 2177,
    "name": "Grotte (Pyrénées) (Ariège) alt. 850.0m - montagne",
    "latitude": 42.9655747,
    "longitude": 0.8641635,
    "type": "cave",
    "address": "Gouffre Raymonde, Sentier des Chèvres, Herran, Saint-Gaudens, Haute-Garonne, France métropolitaine",
    "confidence": 0.8,
    "verified": false,
    "source": "osm_caves",
    "elevation": 850.0
  },
  {
    "id": 2178,
    "name": "Grotte (Pyrénées) (Ariège) alt. 850.0m - montagne",
    "latitude": 42.9648973,
    "longitude": 0.8652833,
    "type": "cave",
    "address": "Trou Mile, Sentier des Chèvres, Herran, Saint-Gaudens, Haute-Garonne, France métropolitaine",
    "confidence": 0.8,
    "verified": false,
    "source": "osm_caves",
    "elevation": 850.0
  },
  {
    "id": 2182,
    "name": "Grotte (Pyrénées) (Ariège) alt. 850.0m - montagne",
    "latitude": 42.7204113,
    "longitude": 1.2132914,
    "type": "cave",
    "address": "Cabane de Montareing, Route du Cirque d'Anglade, Couflens, Saint-Girons, Ariège, France métropolitaine",
    "confidence": 0.8,
    "verified": false,
    "source": "osm_caves",
    "elevation": 850.0
  },
  {
    "id": 2183,
    "name": "Grotte (Pyrénées) (Ariège) alt. 850.0m - montagne",
    "latitude": 42.7404953,
    "longitude": 1.2050343,
    "type": "cave",
    "address": "Aven d'Anglade, Route du Cirque d'Anglade, Couflens, Saint-Girons, Ariège, France métropolitaine",
    "confidence": 0.8,
    "verified": false,
    "source": "osm_caves",
    "elevation": 850.0
  },
  {
    "id": 2186,
    "name": "Grotte (Pyrénées) (Ariège) alt. 850.0m - montagne",
    "latitude": 42.7875981,
    "longitude": 1.4096274,
    "type": "cave",
    "address": "Gouffre, D 18, Le Port, Saint-Girons, Ariège, France métropolitaine",
    "confidence": 0.8,
    "verified": false,
    "source": "osm_caves",
    "elevation": 850.0
  },
  {
    "id": 2187,
    "name": "Grotte (Pyrénées) (Ariège) alt. 850.0m - montagne",
    "latitude": 42.787926,
    "longitude": 1.4082907,
    "type": "cave",
    "address": "Puits 92-2, D 18, Le Port, Saint-Girons, Ariège, France métropolitaine",
    "confidence": 0.8,
    "verified": false,
    "source": "osm_caves",
    "elevation": 850.0
  },
  {
    "id": 2188,
    "name": "Grotte (Pyrénées) (Ariège) alt. 850.0m - montagne",
    "latitude": 42.8573883,
    "longitude": 1.17235,
    "type": "cave",
    "address": "179 Roy 09140 Seix",
    "confidence": 0.8,
    "verified": true,
    "source": "osm_caves",
    "elevation": 850.0
  },
  {
    "id": 2189,
    "name": "Grotte (Pyrénées) (Ariège) alt. 850.0m - montagne",
    "latitude": 42.8442369,
    "longitude": 1.1472146,
    "type": "cave",
    "address": "Route Bois d'Arros, Coumecaude, Seix, Saint-Girons, Ariège, France métropolitaine",
    "confidence": 0.8,
    "verified": false,
    "source": "osm_caves",
    "elevation": 850.0
  },
  {
    "id": 2190,
    "name": "Grotte (Pyrénées) (Ariège) alt. 850.0m - montagne",
    "latitude": 42.865897,
    "longitude": 1.1808641,
    "type": "cave",
    "address": "Camp de Dat, Seix, Saint-Girons, Ariège, France métropolitaine, 09140",
    "confidence": 0.8,
    "verified": false,
    "source": "osm_caves",
    "elevation": 850.0
  },
  {
    "id": 2192,
    "name": "Grotte (Pyrénées) (Ariège) alt. 850.0m - montagne",
    "latitude": 42.7484746,
    "longitude": 1.0649745,
    "type": "cave",
    "address": "Mina, Pista de la Mina, Alt Àneu, Pallars Sobirà, Lleida, Catalunya",
    "confidence": 0.8,
    "verified": false,
    "source": "osm_caves",
    "elevation": 850.0
  },
  {
    "id": 2193,
    "name": "Grotte (Pyrénées) (Ariège) alt. 850.0m - montagne",
    "latitude": 42.8417691,
    "longitude": 1.1690058,
    "type": "cave",
    "address": "Route Bois d'Arros, Coumecaude, Seix, Saint-Girons, Ariège, France métropolitaine",
    "confidence": 0.8,
    "verified": false,
    "source": "osm_caves",
    "elevation": 850.0
  },
  {
    "id": 2194,
    "name": "Grotte (Pyrénées) (Ariège) alt. 850.0m - montagne",
    "latitude": 42.8318976,
    "longitude": 1.1165613,
    "type": "cave",
    "address": "Grotte des Hommes Morts, Route de L'Aube, Seix, Saint-Girons, Ariège, France métropolitaine",
    "confidence": 0.8,
    "verified": false,
    "source": "osm_caves",
    "elevation": 850.0
  },
  {
    "id": 2195,
    "name": "Grotte (Pyrénées) (Ariège) alt. 850.0m - montagne",
    "latitude": 42.8221066,
    "longitude": 1.1047134,
    "type": "cave",
    "address": "Gouffre des Cigalets, Route de L'Aube, Seix, Saint-Girons, Ariège, France métropolitaine",
    "confidence": 0.8,
    "verified": false,
    "source": "osm_caves",
    "elevation": 850.0
  },
  {
    "id": 2196,
    "name": "Grotte (Pyrénées) (Ariège) alt. 850.0m - montagne",
    "latitude": 42.8182927,
    "longitude": 1.1157467,
    "type": "cave",
    "address": "La Lauze, Seix, Saint-Girons, Ariège, France métropolitaine, 09140",
    "confidence": 0.8,
    "verified": false,
    "source": "osm_caves",
    "elevation": 850.0
  },
  {
    "id": 2215,
    "name": "Grotte (Pyrénées) (Ariège) alt. 850.0m - montagne",
    "latitude": 42.8446118,
    "longitude": 1.212453,
    "type": "cave",
    "address": "Le Mirabat, Fouguère, Oust, Saint-Girons, Ariège, France métropolitaine",
    "confidence": 0.8,
    "verified": false,
    "source": "osm_caves",
    "elevation": 850.0
  },
  {
    "id": 2216,
    "name": "Grotte (Pyrénées) (Ariège) alt. 850.0m - montagne",
    "latitude": 42.8268989,
    "longitude": 1.5951474,
    "type": "cave",
    "address": "Le saut de l’Ours, D 8, Tarascon-sur-Ariège, Niaux, Foix, Ariège",
    "confidence": 0.8,
    "verified": false,
    "source": "osm_caves",
    "elevation": 850.0
  },
  {
    "id": 2217,
    "name": "Grotte (Pyrénées) (Ariège) alt. 850.0m - montagne",
    "latitude": 42.8683912,
    "longitude": 1.5621091,
    "type": "cave",
    "address": "Chemin du Col d'Ijou, Bédeilhac, Bédeilhac-et-Aynat, Foix, Ariège, France métropolitaine",
    "confidence": 0.8,
    "verified": false,
    "source": "osm_caves",
    "elevation": 850.0
  },
  {
    "id": 2218,
    "name": "Grotte (Pyrénées) (Ariège) alt. 850.0m - montagne",
    "latitude": 42.5016765,
    "longitude": 1.5224459,
    "type": "cave",
    "address": "Avenc Canya del Moro, Rec de l'Obac, Centre històric, La Comella, Andorra la Vella, AD500",
    "confidence": 0.8,
    "verified": false,
    "source": "osm_caves",
    "elevation": 850.0
  },
  {
    "id": 2219,
    "name": "Grotte (Pyrénées) (Ariège) alt. 850.0m - montagne",
    "latitude": 42.8385946,
    "longitude": 2.1536341,
    "type": "cave",
    "address": "Aven du Prat del Bedell, Sentier Cathare Sud, Quirbajou, Limoux, Aude, France métropolitaine",
    "confidence": 0.8,
    "verified": false,
    "source": "osm_caves",
    "elevation": 850.0
  },
  {
    "id": 2220,
    "name": "Grotte (Pyrénées) (Ariège) alt. 850.0m - montagne",
    "latitude": 42.8939271,
    "longitude": 1.8642908,
    "type": "cave",
    "address": "Grotte de Cougourg, D 9, Le Pigeonnier, Barrineuf, Bénaix, Pamiers",
    "confidence": 0.8,
    "verified": false,
    "source": "osm_caves",
    "elevation": 850.0
  },
  {
    "id": 2221,
    "name": "Grotte (Pyrénées) (Ariège) alt. 850.0m - montagne",
    "latitude": 42.8251448,
    "longitude": 1.2272934,
    "type": "cave",
    "address": "Route de Guzet, Es Côts, Le Trein d'Ustou, Ustou, Saint-Girons, Ariège",
    "confidence": 0.8,
    "verified": false,
    "source": "osm_caves",
    "elevation": 850.0
  },
  {
    "id": 2224,
    "name": "Grotte (Pyrénées) (Ariège) alt. 850.0m - montagne",
    "latitude": 42.8538974,
    "longitude": 2.0565355,
    "type": "cave",
    "address": "Grotte du Sarrat des Hortes, Chemin de le Pigeole et du Roc Blanc, Le Soula du Roc Blanc, Belvis, Limoux, Aude",
    "confidence": 0.8,
    "verified": false,
    "source": "osm_caves",
    "elevation": 850.0
  },
  {
    "id": 2225,
    "name": "Grotte (Pyrénées) (Ariège) alt. 850.0m - montagne",
    "latitude": 42.8529155,
    "longitude": 2.0625344,
    "type": "cave",
    "address": "Trou souffleur du Château des Hortes, Chemin de le Pigeole et du Roc Blanc, Le Soula du Roc Blanc, Belvis, Limoux, Aude",
    "confidence": 0.8,
    "verified": false,
    "source": "osm_caves",
    "elevation": 850.0
  },
  {
    "id": 2226,
    "name": "Grotte (Pyrénées) (Ariège) alt. 850.0m - montagne",
    "latitude": 42.576625,
    "longitude": 1.1509659,
    "type": "cave",
    "address": "Forat de l'Esporgader, Camí de Dorve a Berrós Jussà, Berrós Jussà, la Guingueta d'Àneu, Pallars Sobirà, Lleida",
    "confidence": 0.8,
    "verified": false,
    "source": "osm_caves",
    "elevation": 850.0
  },
  {
    "id": 2233,
    "name": "Grotte (Pyrénées) (Ariège) alt. 850.0m - montagne",
    "latitude": 42.9749394,
    "longitude": 0.9999296,
    "type": "cave",
    "address": "B22, Balagué, Balaguères, Saint-Girons, Ariège, France métropolitaine",
    "confidence": 0.8,
    "verified": false,
    "source": "osm_caves",
    "elevation": 850.0
  },
  {
    "id": 2234,
    "name": "Grotte (Pyrénées) (Ariège) alt. 850.0m - montagne",
    "latitude": 42.9566516,
    "longitude": 1.0308312,
    "type": "cave",
    "address": "B4, Alas, Balagué, Balaguères, Saint-Girons, Ariège",
    "confidence": 0.8,
    "verified": false,
    "source": "osm_caves",
    "elevation": 850.0
  },
  {
    "id": 2236,
    "name": "Grotte (Pyrénées) (Ariège) alt. 850.0m - montagne",
    "latitude": 42.7999824,
    "longitude": 1.3828865,
    "type": "cave",
    "address": "D 18, Le Port, Saint-Girons, Ariège, France métropolitaine, 09320",
    "confidence": 0.8,
    "verified": false,
    "source": "osm_caves",
    "elevation": 850.0
  },
  {
    "id": 2237,
    "name": "Grotte (Pyrénées) (Ariège) alt. 850.0m - montagne",
    "latitude": 42.8029768,
    "longitude": 1.3755141,
    "type": "cave",
    "address": "D 8F, Le Port, Saint-Girons, Ariège, France métropolitaine, 09320",
    "confidence": 0.8,
    "verified": false,
    "source": "osm_caves",
    "elevation": 850.0
  },
  {
    "id": 2238,
    "name": "Grotte (Pyrénées) (Ariège) alt. 850.0m - montagne",
    "latitude": 42.8050618,
    "longitude": 1.5972408,
    "type": "cave",
    "address": "Spoulga de Baychon, Impasse du Barrot, Baychon, Miglos, Foix, Ariège",
    "confidence": 0.8,
    "verified": false,
    "source": "osm_caves",
    "elevation": 850.0
  },
  {
    "id": 2240,
    "name": "Grotte (Pyrénées) (Ariège) alt. 850.0m - montagne",
    "latitude": 42.9956525,
    "longitude": 1.1390542,
    "type": "cave",
    "address": "24 Rue de Mauberme 09190 Saint-Lizier",
    "confidence": 0.8,
    "verified": true,
    "source": "osm_caves",
    "elevation": 850.0
  },
  {
    "id": 2241,
    "name": "Grotte (Pyrénées) (Ariège) alt. 850.0m - montagne",
    "latitude": 42.7915087,
    "longitude": 1.3989116,
    "type": "cave",
    "address": "Puits, D 8F, Aulus-les-Bains, Saint-Girons, Ariège, France métropolitaine",
    "confidence": 0.8,
    "verified": false,
    "source": "osm_caves",
    "elevation": 850.0
  },
  {
    "id": 2242,
    "name": "Grotte (Pyrénées) (Ariège) alt. 850.0m - montagne",
    "latitude": 42.8203479,
    "longitude": 2.1074761,
    "type": "cave",
    "address": "D 107, Massols, Marsa, Limoux, Aude, France métropolitaine",
    "confidence": 0.8,
    "verified": false,
    "source": "osm_caves",
    "elevation": 850.0
  },
  {
    "id": 2243,
    "name": "Grotte (Pyrénées) (Ariège) alt. 850.0m - montagne",
    "latitude": 42.9508239,
    "longitude": 1.1407479,
    "type": "cave",
    "address": "Gouffre du Grand Plagnol, Route de Saudech, Parat, Saint-Girons, Ariège, France métropolitaine",
    "confidence": 0.8,
    "verified": false,
    "source": "osm_caves",
    "elevation": 850.0
  },
  {
    "id": 2244,
    "name": "Grotte (Pyrénées) (Ariège) alt. 850.0m - montagne",
    "latitude": 42.9949078,
    "longitude": 1.333264,
    "type": "cave",
    "address": "D 117, Micou, Castelnau-Durban, Saint-Girons, Ariège, France métropolitaine",
    "confidence": 0.8,
    "verified": false,
    "source": "osm_caves",
    "elevation": 850.0
  },
  {
    "id": 2245,
    "name": "Grotte (Pyrénées) (Ariège) alt. 850.0m - montagne",
    "latitude": 42.8162871,
    "longitude": 0.8807895,
    "type": "cave",
    "address": "Grotte des Corneilles, Sentein, Saint-Girons, Ariège, France métropolitaine, 09800",
    "confidence": 0.8,
    "verified": false,
    "source": "osm_caves",
    "elevation": 850.0
  },
  {
    "id": 2246,
    "name": "Grotte (Pyrénées) (Ariège) alt. 850.0m - montagne",
    "latitude": 42.9675222,
    "longitude": 0.8717722,
    "type": "cave",
    "address": "Gouffre Duplessis, Sentier des Chèvres, Herran, Saint-Gaudens, Haute-Garonne, France métropolitaine",
    "confidence": 0.8,
    "verified": false,
    "source": "osm_caves",
    "elevation": 850.0
  },
  {
    "id": 2247,
    "name": "Grotte (Pyrénées) (Ariège) alt. 850.0m - montagne",
    "latitude": 42.9678315,
    "longitude": 0.8752564,
    "type": "cave",
    "address": "Gouffre Pierre, D 13b, Sarrat de Bouch, Herran, Saint-Gaudens, Haute-Garonne",
    "confidence": 0.8,
    "verified": false,
    "source": "osm_caves",
    "elevation": 850.0
  },
  {
    "id": 2248,
    "name": "Grotte (Pyrénées) (Ariège) alt. 850.0m - montagne",
    "latitude": 42.8583331,
    "longitude": 1.3733791,
    "type": "cave",
    "address": "205 Lieu Dit le Tail 09320 Le Port",
    "confidence": 0.8,
    "verified": true,
    "source": "osm_caves",
    "elevation": 850.0
  },
  {
    "id": 2249,
    "name": "Grotte (Pyrénées) (Ariège) alt. 850.0m - montagne",
    "latitude": 42.7945859,
    "longitude": 1.9970129,
    "type": "cave",
    "address": "Porche des Bargantes n°2, D 107, Niort-de-Sault, Limoux, Aude, France métropolitaine",
    "confidence": 0.8,
    "verified": false,
    "source": "osm_caves",
    "elevation": 850.0
  },
  {
    "id": 2250,
    "name": "Grotte (Pyrénées) (Ariège) alt. 850.0m - montagne",
    "latitude": 42.7942959,
    "longitude": 1.9958076,
    "type": "cave",
    "address": "Grande grotte des Bargantes, D 107, Niort-de-Sault, Limoux, Aude, France métropolitaine",
    "confidence": 0.8,
    "verified": false,
    "source": "osm_caves",
    "elevation": 850.0
  },
  {
    "id": 2253,
    "name": "Grotte (Pyrénées) (Ariège) alt. 850.0m - montagne",
    "latitude": 42.8355927,
    "longitude": 1.0744406,
    "type": "cave",
    "address": "Poutz, Balis. J, Bethmale, Saint-Girons, Ariège, France métropolitaine",
    "confidence": 0.8,
    "verified": false,
    "source": "osm_caves",
    "elevation": 850.0
  },
  {
    "id": 2254,
    "name": "Grotte (Pyrénées) (Ariège) alt. 850.0m - montagne",
    "latitude": 42.548588,
    "longitude": 0.8076102,
    "type": "cave",
    "address": "Forat del Mont, Camins Vius, Erill la Vall, Boí, la Vall de Boí, Alta Ribagorça",
    "confidence": 0.8,
    "verified": false,
    "source": "osm_caves",
    "elevation": 850.0
  },
  {
    "id": 2255,
    "name": "Grotte (Pyrénées) (Ariège) alt. 850.0m - montagne",
    "latitude": 42.5517364,
    "longitude": 0.9046237,
    "type": "cave",
    "address": "Cova del Sardo, Camí d'Aigüestortes a l'Estany de Sant Maurici, la Vall de Boí, Alta Ribagorça, Catalunya, 25528",
    "confidence": 0.8,
    "verified": false,
    "source": "osm_caves",
    "elevation": 850.0
  },
  {
    "id": 2256,
    "name": "Grotte (Pyrénées) (Ariège) alt. 850.0m - montagne",
    "latitude": 42.5327201,
    "longitude": 0.9109838,
    "type": "cave",
    "address": "Forat del Graller, Camí d'Aigüestortes a l'Estany de Sant Maurici, la Vall de Boí, Alta Ribagorça, Catalunya, 25528",
    "confidence": 0.8,
    "verified": false,
    "source": "osm_caves",
    "elevation": 850.0
  },
  {
    "id": 2257,
    "name": "Grotte (Pyrénées) (Ariège) alt. 850.0m - montagne",
    "latitude": 42.5336129,
    "longitude": 0.9106685,
    "type": "cave",
    "address": "Font del Graller, Camí d'Aigüestortes a l'Estany de Sant Maurici, la Vall de Boí, Alta Ribagorça, Catalunya, 25528",
    "confidence": 0.8,
    "verified": false,
    "source": "osm_caves",
    "elevation": 850.0
  },
  {
    "id": 2258,
    "name": "Grotte (Pyrénées) (Ariège) alt. 850.0m - montagne",
    "latitude": 42.7844333,
    "longitude": 1.4054374,
    "type": "cave",
    "address": "Puits 92, D 8F, Aulus-les-Bains, Saint-Girons, Ariège, France métropolitaine",
    "confidence": 0.8,
    "verified": false,
    "source": "osm_caves",
    "elevation": 850.0
  },
  {
    "id": 2259,
    "name": "Grotte (Pyrénées) (Ariège) alt. 850.0m - montagne",
    "latitude": 42.7695713,
    "longitude": 1.3364442,
    "type": "cave",
    "address": "Puits de Guzettou, Passerelle de Bazets, Aulus-les-Bains, Saint-Girons, Ariège, France métropolitaine",
    "confidence": 0.8,
    "verified": false,
    "source": "osm_caves",
    "elevation": 850.0
  },
  {
    "id": 2261,
    "name": "Grotte (Pyrénées) (Ariège) alt. 850.0m - montagne",
    "latitude": 42.8338813,
    "longitude": 1.2177308,
    "type": "cave",
    "address": "Chemin de Service, La Bincarède, Ustou, Saint-Girons, Ariège, France métropolitaine",
    "confidence": 0.8,
    "verified": false,
    "source": "osm_caves",
    "elevation": 850.0
  },
  {
    "id": 2263,
    "name": "Grotte (Pyrénées) (Ariège) alt. 850.0m - montagne",
    "latitude": 42.8031308,
    "longitude": 2.0187103,
    "type": "cave",
    "address": "Barrenc des Bessines, D 107, Niort-de-Sault, Limoux, Aude, France métropolitaine",
    "confidence": 0.8,
    "verified": false,
    "source": "osm_caves",
    "elevation": 850.0
  },
  {
    "id": 2264,
    "name": "Grotte (Pyrénées) (Ariège) alt. 850.0m - montagne",
    "latitude": 42.769851,
    "longitude": 2.0173683,
    "type": "cave",
    "address": "Trou du Col des Escouillades, D 820, Mazuby, Limoux, Aude, France métropolitaine",
    "confidence": 0.8,
    "verified": false,
    "source": "osm_caves",
    "elevation": 850.0
  },
  {
    "id": 2265,
    "name": "Grotte (Pyrénées) (Ariège) alt. 850.0m - montagne",
    "latitude": 42.7746808,
    "longitude": 2.0167856,
    "type": "cave",
    "address": "Trou d'Antoine, D 820, Mazuby, Limoux, Aude, France métropolitaine",
    "confidence": 0.8,
    "verified": false,
    "source": "osm_caves",
    "elevation": 850.0
  },
  {
    "id": 2266,
    "name": "Grotte (Pyrénées) (Ariège) alt. 850.0m - montagne",
    "latitude": 42.8048469,
    "longitude": 2.0110656,
    "type": "cave",
    "address": "Porche 2, D 107, Niort-de-Sault, Limoux, Aude, France métropolitaine",
    "confidence": 0.8,
    "verified": false,
    "source": "osm_caves",
    "elevation": 850.0
  },
  {
    "id": 2267,
    "name": "Grotte (Pyrénées) (Ariège) alt. 850.0m - montagne",
    "latitude": 42.8046008,
    "longitude": 2.0063176,
    "type": "cave",
    "address": "Labau-ouest 11140 Niort-de-Sault",
    "confidence": 0.8,
    "verified": true,
    "source": "osm_caves",
    "elevation": 850.0
  },
  {
    "id": 2268,
    "name": "Grotte (Pyrénées) (Ariège) alt. 850.0m - montagne",
    "latitude": 42.8040769,
    "longitude": 2.0071929,
    "type": "cave",
    "address": "Labau-ouest 11140 Niort-de-Sault",
    "confidence": 0.8,
    "verified": true,
    "source": "osm_caves",
    "elevation": 850.0
  },
  {
    "id": 2269,
    "name": "Grotte (Pyrénées) (Ariège) alt. 850.0m - montagne",
    "latitude": 42.8051705,
    "longitude": 2.0089424,
    "type": "cave",
    "address": "Labau-ouest 11140 Niort-de-Sault",
    "confidence": 0.8,
    "verified": true,
    "source": "osm_caves",
    "elevation": 850.0
  },
  {
    "id": 2270,
    "name": "Grotte (Pyrénées) (Ariège) alt. 850.0m - montagne",
    "latitude": 42.8088466,
    "longitude": 2.0291903,
    "type": "cave",
    "address": "Grotte de l'Aiguille Louis XIV, D 107, Niort-de-Sault, Limoux, Aude, France métropolitaine",
    "confidence": 0.8,
    "verified": false,
    "source": "osm_caves",
    "elevation": 850.0
  },
  {
    "id": 2271,
    "name": "Grotte (Pyrénées) (Ariège) alt. 850.0m - montagne",
    "latitude": 42.8087328,
    "longitude": 2.027491,
    "type": "cave",
    "address": "Micro grotte du Rébenty, D 107, Niort-de-Sault, Limoux, Aude, France métropolitaine",
    "confidence": 0.8,
    "verified": false,
    "source": "osm_caves",
    "elevation": 850.0
  },
  {
    "id": 2272,
    "name": "Grotte (Pyrénées) (Ariège) alt. 850.0m - montagne",
    "latitude": 42.8091946,
    "longitude": 2.0281969,
    "type": "cave",
    "address": "Petite grotte du Rébenty, D 107, Espezel, Limoux, Aude, France métropolitaine",
    "confidence": 0.8,
    "verified": false,
    "source": "osm_caves",
    "elevation": 850.0
  },
  {
    "id": 2274,
    "name": "Grotte (Pyrénées) (Ariège) alt. 850.0m - montagne",
    "latitude": 42.7942408,
    "longitude": 2.0307537,
    "type": "cave",
    "address": "Grotte des Naucs, D 820, Mazuby, Limoux, Aude, France métropolitaine",
    "confidence": 0.8,
    "verified": false,
    "source": "osm_caves",
    "elevation": 850.0
  },
  {
    "id": 2275,
    "name": "Grotte (Pyrénées) (Ariège) alt. 850.0m - montagne",
    "latitude": 42.9027613,
    "longitude": 1.1868156,
    "type": "cave",
    "address": "Chemin de la Source de la Tusse, Bernardes, Soueix-Rogalle, Saint-Girons, Ariège, France métropolitaine",
    "confidence": 0.8,
    "verified": false,
    "source": "osm_caves",
    "elevation": 850.0
  },
  {
    "id": 2276,
    "name": "Grotte (Pyrénées) (Ariège) alt. 850.0m - montagne",
    "latitude": 42.9026753,
    "longitude": 1.1838344,
    "type": "cave",
    "address": "Grotte d'Ardet, Chemin de la Sarrête, Bernardes, Rogalle, Soueix-Rogalle, Saint-Girons",
    "confidence": 0.8,
    "verified": false,
    "source": "osm_caves",
    "elevation": 850.0
  },
  {
    "id": 2280,
    "name": "Grotte (Pyrénées) (Ariège) alt. 850.0m - montagne",
    "latitude": 42.8092268,
    "longitude": 1.3737646,
    "type": "cave",
    "address": "Perte, D 8F, Le Port, Saint-Girons, Ariège, France métropolitaine",
    "confidence": 0.8,
    "verified": false,
    "source": "osm_caves",
    "elevation": 850.0
  },
  {
    "id": 2282,
    "name": "Grotte (Pyrénées) (Ariège) alt. 850.0m - montagne",
    "latitude": 42.7705696,
    "longitude": 1.3038126,
    "type": "cave",
    "address": "Gouffre, Picou, Guzet-Neige, Ustou, Saint-Girons, Ariège",
    "confidence": 0.8,
    "verified": false,
    "source": "osm_caves",
    "elevation": 850.0
  },
  {
    "id": 2283,
    "name": "Grotte (Pyrénées) (Ariège) alt. 850.0m - montagne",
    "latitude": 42.8968473,
    "longitude": 1.018442,
    "type": "cave",
    "address": "grotte de Chermillé, D 4, Bout du Village, Bacher, Les Bordes-sur-Lez, Bordes-Uchentein",
    "confidence": 0.8,
    "verified": false,
    "source": "osm_caves",
    "elevation": 850.0
  },
  {
    "id": 2284,
    "name": "Grotte (Pyrénées) (Ariège) alt. 850.0m - montagne",
    "latitude": 42.8269984,
    "longitude": 1.2452199,
    "type": "cave",
    "address": "Poutz de la Ruguero, Chemin de Ruguère Bouno, Es Côts, Le Trein d'Ustou, Ustou, Saint-Girons",
    "confidence": 0.8,
    "verified": false,
    "source": "osm_caves",
    "elevation": 850.0
  },
  {
    "id": 2286,
    "name": "Grotte (Pyrénées) (Ariège) alt. 850.0m - montagne",
    "latitude": 42.8633068,
    "longitude": 1.5786107,
    "type": "cave",
    "address": "Grotte, Route de Saurat, La Forge, Surba, Foix, Ariège",
    "confidence": 0.8,
    "verified": false,
    "source": "osm_caves",
    "elevation": 850.0
  },
  {
    "id": 2287,
    "name": "Grotte (Pyrénées) (Ariège) alt. 850.0m - montagne",
    "latitude": 42.8637316,
    "longitude": 1.5805838,
    "type": "cave",
    "address": "Grotte, Route de Saurat, La Forge, Surba, Foix, Ariège",
    "confidence": 0.8,
    "verified": false,
    "source": "osm_caves",
    "elevation": 850.0
  },
  {
    "id": 2288,
    "name": "Grotte (Pyrénées) (Ariège) alt. 850.0m - montagne",
    "latitude": 42.8675161,
    "longitude": 1.5770685,
    "type": "cave",
    "address": "Grotte, D 618, Bédeilhac, Bédeilhac-et-Aynat, Foix, Ariège",
    "confidence": 0.8,
    "verified": false,
    "source": "osm_caves",
    "elevation": 850.0
  },
  {
    "id": 2289,
    "name": "Grotte (Pyrénées) (Ariège) alt. 850.0m - montagne",
    "latitude": 42.8670179,
    "longitude": 1.5840774,
    "type": "cave",
    "address": "Grotte, Route de Saurat, La Forge, Surba, Foix, Ariège",
    "confidence": 0.8,
    "verified": false,
    "source": "osm_caves",
    "elevation": 850.0
  },
  {
    "id": 2290,
    "name": "Grotte (Pyrénées) (Ariège) alt. 850.0m - montagne",
    "latitude": 42.8644195,
    "longitude": 1.578456,
    "type": "cave",
    "address": "Grotte, Route de Saurat, La Forge, Surba, Foix, Ariège",
    "confidence": 0.8,
    "verified": false,
    "source": "osm_caves",
    "elevation": 850.0
  },
  {
    "id": 2291,
    "name": "Grotte (Pyrénées) (Ariège) alt. 850.0m - montagne",
    "latitude": 42.8688879,
    "longitude": 1.5721703,
    "type": "cave",
    "address": "Grotte de Pradières, D 618, Bédeilhac, Bédeilhac-et-Aynat, Foix, Ariège",
    "confidence": 0.8,
    "verified": false,
    "source": "osm_caves",
    "elevation": 850.0
  },
  {
    "id": 2296,
    "name": "Grotte (Pyrénées) (Ariège) alt. 850.0m - montagne",
    "latitude": 42.8263426,
    "longitude": 1.2576052,
    "type": "cave",
    "address": "Poutz de la Lane, La Terasse, Es Côts, Le Trein d'Ustou, Ustou, Saint-Girons",
    "confidence": 0.8,
    "verified": false,
    "source": "osm_caves",
    "elevation": 850.0
  },
  {
    "id": 2301,
    "name": "Grotte (Pyrénées) (Ariège) alt. 850.0m - montagne",
    "latitude": 42.9370898,
    "longitude": 1.1520261,
    "type": "cave",
    "address": "Trou L2, Chemin de Cloutex, Eycheil, Saint-Girons, Ariège, France métropolitaine",
    "confidence": 0.8,
    "verified": false,
    "source": "osm_caves",
    "elevation": 850.0
  },
  {
    "id": 2313,
    "name": "Grotte (Pyrénées) (Ariège) alt. 850.0m - montagne",
    "latitude": 42.8363746,
    "longitude": 2.063787,
    "type": "cave",
    "address": "Grotte d'Able, Ruisseau de la Rabasse, Joucou, Limoux, Aude, France métropolitaine",
    "confidence": 0.8,
    "verified": false,
    "source": "osm_caves",
    "elevation": 850.0
  },
  {
    "id": 2314,
    "name": "Grotte (Pyrénées) (Ariège) alt. 850.0m - montagne",
    "latitude": 42.8350798,
    "longitude": 2.0724478,
    "type": "cave",
    "address": "Trou du Col du Parre, Route des Sapins, Belvis, Limoux, Aude, France métropolitaine",
    "confidence": 0.8,
    "verified": false,
    "source": "osm_caves",
    "elevation": 850.0
  },
  {
    "id": 2315,
    "name": "Grotte (Pyrénées) (Ariège) alt. 850.0m - montagne",
    "latitude": 42.8365304,
    "longitude": 2.0606185,
    "type": "cave",
    "address": "Grotte du Défilé d'Able n°1, D 107, Belfort-sur-Rebenty, Limoux, Aude, France métropolitaine",
    "confidence": 0.8,
    "verified": false,
    "source": "osm_caves",
    "elevation": 850.0
  },
  {
    "id": 2318,
    "name": "Grotte (Pyrénées) (Ariège) alt. 850.0m - montagne",
    "latitude": 42.9224311,
    "longitude": 1.7940209,
    "type": "cave",
    "address": "Péreille, Pamiers, Ariège, France métropolitaine, 09300, France",
    "confidence": 0.8,
    "verified": false,
    "source": "osm_caves",
    "elevation": 850.0
  },
  {
    "id": 2320,
    "name": "Grotte (Pyrénées) (Ariège) alt. 850.0m - montagne",
    "latitude": 42.834472,
    "longitude": 1.2310214,
    "type": "cave",
    "address": "Route de Guzet, Es Côts, Le Trein d'Ustou, Ustou, Saint-Girons, Ariège",
    "confidence": 0.8,
    "verified": false,
    "source": "osm_caves",
    "elevation": 850.0
  },
  {
    "id": 2321,
    "name": "Grotte (Pyrénées) (Ariège) alt. 850.0m - montagne",
    "latitude": 42.8302012,
    "longitude": 1.2188545,
    "type": "cave",
    "address": "Font Sainte 09140 Ustou",
    "confidence": 0.8,
    "verified": true,
    "source": "osm_caves",
    "elevation": 850.0
  },
  {
    "id": 2331,
    "name": "Grotte (Pyrénées) (Ariège) alt. 850.0m - montagne",
    "latitude": 42.9717036,
    "longitude": 0.8655582,
    "type": "cave",
    "address": "Puits du Balcon, Sentier des Chèvres, Herran, Saint-Gaudens, Haute-Garonne, France métropolitaine",
    "confidence": 0.8,
    "verified": false,
    "source": "osm_caves",
    "elevation": 850.0
  },
  {
    "id": 2332,
    "name": "Grotte (Pyrénées) (Ariège) alt. 850.0m - montagne",
    "latitude": 42.9824356,
    "longitude": 0.9639059,
    "type": "cave",
    "address": "Gouffre de Damoclès, Piste forestière de la Borne 110, La Coudère, Urau, Saint-Gaudens, Haute-Garonne",
    "confidence": 0.8,
    "verified": false,
    "source": "osm_caves",
    "elevation": 850.0
  },
  {
    "id": 2333,
    "name": "Grotte (Pyrénées) (Ariège) alt. 850.0m - montagne",
    "latitude": 42.9673772,
    "longitude": 0.8651279,
    "type": "cave",
    "address": "Grotte de Coume Nère, Sentier des Chèvres, Herran, Saint-Gaudens, Haute-Garonne, France métropolitaine",
    "confidence": 0.8,
    "verified": false,
    "source": "osm_caves",
    "elevation": 850.0
  },
  {
    "id": 2335,
    "name": "Grotte (Pyrénées) (Ariège) alt. 850.0m - montagne",
    "latitude": 42.9811604,
    "longitude": 0.901094,
    "type": "cave",
    "address": "3 Chemin de Gourgue 31160 Arbas",
    "confidence": 0.8,
    "verified": true,
    "source": "osm_caves",
    "elevation": 850.0
  },
  {
    "id": 2346,
    "name": "Grotte (Pyrénées) (Ariège) alt. 850.0m - montagne",
    "latitude": 42.8325943,
    "longitude": 1.5988303,
    "type": "cave",
    "address": "819 Saut Del Teil 09400 Tarascon-sur-Ariège",
    "confidence": 0.8,
    "verified": true,
    "source": "osm_caves",
    "elevation": 850.0
  },
  {
    "id": 2347,
    "name": "Grotte (Pyrénées) (Ariège) alt. 850.0m - montagne",
    "latitude": 42.8827425,
    "longitude": 1.5456413,
    "type": "cave",
    "address": "365 Route du Souleilhan 09400 Saurat",
    "confidence": 0.8,
    "verified": true,
    "source": "osm_caves",
    "elevation": 850.0
  },
  {
    "id": 2351,
    "name": "Grotte (Pyrénées) (Ariège) alt. 850.0m - montagne",
    "latitude": 42.8269831,
    "longitude": 1.6206782,
    "type": "cave",
    "address": "15 Route des Thermes 09400 Ussat",
    "confidence": 0.8,
    "verified": true,
    "source": "osm_caves",
    "elevation": 850.0
  },
  {
    "id": 2352,
    "name": "Grotte (Pyrénées) (Ariège) alt. 850.0m - montagne",
    "latitude": 42.8261937,
    "longitude": 1.6204664,
    "type": "cave",
    "address": "1 Rond Point du Manoir 09400 Ussat",
    "confidence": 0.8,
    "verified": true,
    "source": "osm_caves",
    "elevation": 850.0
  },
  {
    "id": 2360,
    "name": "Grotte (Pyrénées) (Ariège) alt. 850.0m - montagne",
    "latitude": 42.9912877,
    "longitude": 1.0499399,
    "type": "cave",
    "address": "Fontaine de Toude, D 33A, Le Pont, Cazavet, Saint-Girons, Ariège",
    "confidence": 0.8,
    "verified": false,
    "source": "osm_caves",
    "elevation": 850.0
  },
  {
    "id": 2365,
    "name": "Grotte (Pyrénées) (Ariège) alt. 850.0m - montagne",
    "latitude": 42.9786601,
    "longitude": 0.884098,
    "type": "cave",
    "address": "Trou souffleur du Plan de Gaule, D 13b, Sarrat de Bouch, Herran, Saint-Gaudens, Haute-Garonne",
    "confidence": 0.8,
    "verified": false,
    "source": "osm_caves",
    "elevation": 850.0
  },
  {
    "id": 2366,
    "name": "Grotte (Pyrénées) (Ariège) alt. 850.0m - montagne",
    "latitude": 42.9780787,
    "longitude": 0.8834229,
    "type": "cave",
    "address": "Puits du Plan de Gaule, D 13b, Sarrat de Bouch, Herran, Saint-Gaudens, Haute-Garonne",
    "confidence": 0.8,
    "verified": false,
    "source": "osm_caves",
    "elevation": 850.0
  },
  {
    "id": 2367,
    "name": "Grotte (Pyrénées) (Ariège) alt. 850.0m - montagne",
    "latitude": 42.7630233,
    "longitude": 1.4909081,
    "type": "cave",
    "address": "504 Lieu Dit Olbier 09220 Auzat",
    "confidence": 0.8,
    "verified": true,
    "source": "osm_caves",
    "elevation": 850.0
  },
  {
    "id": 2376,
    "name": "Grotte (Pyrénées) (Ariège) alt. 850.0m - montagne",
    "latitude": 42.7645382,
    "longitude": 1.4940996,
    "type": "cave",
    "address": "830 Brunet 09220 Auzat",
    "confidence": 0.8,
    "verified": true,
    "source": "osm_caves",
    "elevation": 850.0
  },
  {
    "id": 2377,
    "name": "Grotte (Pyrénées) (Ariège) alt. 850.0m - montagne",
    "latitude": 42.7639734,
    "longitude": 1.4943456,
    "type": "cave",
    "address": "830 Brunet 09220 Auzat",
    "confidence": 0.8,
    "verified": true,
    "source": "osm_caves",
    "elevation": 850.0
  },
  {
    "id": 2379,
    "name": "Grotte (Pyrénées) (Ariège) alt. 850.0m - montagne",
    "latitude": 42.8660329,
    "longitude": 1.8350103,
    "type": "cave",
    "address": "Perte, Chemin du Moulin, Montségur, Pamiers, Ariège, France métropolitaine",
    "confidence": 0.8,
    "verified": false,
    "source": "osm_caves",
    "elevation": 850.0
  },
  {
    "id": 2380,
    "name": "Grotte (Pyrénées) (Ariège) alt. 850.0m - montagne",
    "latitude": 42.8641985,
    "longitude": 1.5725186,
    "type": "cave",
    "address": "42 Impasse du Rocher 09400 Surba",
    "confidence": 0.8,
    "verified": true,
    "source": "osm_caves",
    "elevation": 850.0
  },
  {
    "id": 2394,
    "name": "Grotte (Pyrénées) (Ariège) alt. 850.0m - montagne",
    "latitude": 42.9675433,
    "longitude": 1.1118095,
    "type": "cave",
    "address": "Grotte des Fadettes, Route de Castillon, Calvet, Moulis, Saint-Girons, Ariège",
    "confidence": 0.8,
    "verified": false,
    "source": "osm_caves",
    "elevation": 850.0
  },
  {
    "id": 2395,
    "name": "Grotte (Pyrénées) (Ariège) alt. 850.0m - montagne",
    "latitude": 42.9550702,
    "longitude": 1.1229986,
    "type": "cave",
    "address": "Gouffre Minette, Route de Saudech, Moulis, Saint-Girons, Ariège, France métropolitaine",
    "confidence": 0.8,
    "verified": false,
    "source": "osm_caves",
    "elevation": 850.0
  },
  {
    "id": 2396,
    "name": "Grotte (Pyrénées) (Ariège) alt. 850.0m - montagne",
    "latitude": 42.734568,
    "longitude": 1.1989979,
    "type": "cave",
    "address": "Perte, Route du Cirque d'Anglade, Salau d’En Haut, Salau, Couflens, Saint-Girons",
    "confidence": 0.8,
    "verified": false,
    "source": "osm_caves",
    "elevation": 850.0
  },
  {
    "id": 2400,
    "name": "Grotte (Pyrénées) (Ariège) alt. 850.0m - montagne",
    "latitude": 42.8842549,
    "longitude": 2.0156415,
    "type": "cave",
    "address": "Barrenc de la Tira de la Lauza, Route des Sapins, Roquefeuil, Limoux, Aude, France métropolitaine",
    "confidence": 0.8,
    "verified": false,
    "source": "osm_caves",
    "elevation": 850.0
  },
  {
    "id": 2401,
    "name": "Grotte (Pyrénées) (Ariège) alt. 850.0m - montagne",
    "latitude": 42.8827976,
    "longitude": 1.9926159,
    "type": "cave",
    "address": "Perte de la Fount del Beire, Route des Sapins, Roquefeuil, Limoux, Aude, France métropolitaine",
    "confidence": 0.8,
    "verified": false,
    "source": "osm_caves",
    "elevation": 850.0
  },
  {
    "id": 2403,
    "name": "Grotte (Pyrénées) (Ariège) alt. 850.0m - montagne",
    "latitude": 42.8376902,
    "longitude": 2.1776156,
    "type": "cave",
    "address": "Aven de las Bouychas, Chemin du Puits, Quirbajou, Limoux, Aude, France métropolitaine",
    "confidence": 0.8,
    "verified": false,
    "source": "osm_caves",
    "elevation": 850.0
  },
  {
    "id": 2407,
    "name": "Grotte (Pyrénées) (Ariège) alt. 850.0m - montagne",
    "latitude": 42.7506558,
    "longitude": 1.9580187,
    "type": "cave",
    "address": "Grotte des Oreillards, D 107, La Fajolle, Limoux, Aude, France métropolitaine",
    "confidence": 0.8,
    "verified": false,
    "source": "osm_caves",
    "elevation": 850.0
  },
  {
    "id": 2411,
    "name": "Grotte (Pyrénées) (Ariège) alt. 850.0m - montagne",
    "latitude": 42.7783115,
    "longitude": 1.9671335,
    "type": "cave",
    "address": "Grotte du Pylone, D 107, Mérial, Limoux, Aude, France métropolitaine",
    "confidence": 0.8,
    "verified": false,
    "source": "osm_caves",
    "elevation": 850.0
  },
  {
    "id": 2417,
    "name": "Grotte (Pyrénées) (Ariège) alt. 850.0m - montagne",
    "latitude": 42.8861277,
    "longitude": 2.015945,
    "type": "cave",
    "address": "Barrenc du Sarrat des Loups, Route des Sapins, Roquefeuil, Limoux, Aude, France métropolitaine",
    "confidence": 0.8,
    "verified": false,
    "source": "osm_caves",
    "elevation": 850.0
  },
  {
    "id": 2419,
    "name": "Grotte (Pyrénées) (Ariège) alt. 850.0m - montagne",
    "latitude": 42.8490526,
    "longitude": 2.0993606,
    "type": "cave",
    "address": "Aven de la Lucarne, Route de Quillan / Route des Sapins, Lapeyre, Belvis, Limoux, Aude",
    "confidence": 0.8,
    "verified": false,
    "source": "osm_caves",
    "elevation": 850.0
  },
  {
    "id": 2420,
    "name": "Grotte (Pyrénées) (Ariège) alt. 850.0m - montagne",
    "latitude": 42.7659209,
    "longitude": 2.0286422,
    "type": "cave",
    "address": "Aven de l'Ourtiset, rue de Salvanière, Campagna-de-Sault, Limoux, Aude, France métropolitaine",
    "confidence": 0.8,
    "verified": false,
    "source": "osm_caves",
    "elevation": 850.0
  },
  {
    "id": 2424,
    "name": "Grotte (Pyrénées) (Ariège) alt. 850.0m - montagne",
    "latitude": 42.8672498,
    "longitude": 2.012036,
    "type": "cave",
    "address": "Gouffre du Barbu, Route des Sapins, Roquefeuil, Limoux, Aude, France métropolitaine",
    "confidence": 0.8,
    "verified": false,
    "source": "osm_caves",
    "elevation": 850.0
  },
  {
    "id": 2425,
    "name": "Grotte (Pyrénées) (Ariège) alt. 850.0m - montagne",
    "latitude": 42.8972657,
    "longitude": 2.0193086,
    "type": "cave",
    "address": "Gouffre du Chandelier n° 3, D 120, Camp Saure, L'Escale, Puivert, Limoux",
    "confidence": 0.8,
    "verified": false,
    "source": "osm_caves",
    "elevation": 850.0
  },
  {
    "id": 2429,
    "name": "Grotte (Pyrénées) (Ariège) alt. 850.0m - montagne",
    "latitude": 42.8817115,
    "longitude": 2.0700498,
    "type": "cave",
    "address": "Gouffre de Trabanet, Route des Sapins, La Malayrède, Belvis, Limoux, Aude",
    "confidence": 0.8,
    "verified": false,
    "source": "osm_caves",
    "elevation": 850.0
  },
  {
    "id": 2431,
    "name": "Grotte (Pyrénées) (Ariège) alt. 850.0m - montagne",
    "latitude": 42.8565932,
    "longitude": 2.0606352,
    "type": "cave",
    "address": "Barrenc de l'Entraoucade, Chemin Rural du Pla de l'Agre à Belvis, Belvis, Limoux, Aude, France métropolitaine",
    "confidence": 0.8,
    "verified": false,
    "source": "osm_caves",
    "elevation": 850.0
  },
  {
    "id": 2433,
    "name": "Grotte (Pyrénées) (Ariège) alt. 850.0m - montagne",
    "latitude": 42.7624271,
    "longitude": 2.0209028,
    "type": "cave",
    "address": "Aven de la Bentaillole, rue de Salvanière, Campagna-de-Sault, Limoux, Aude, France métropolitaine",
    "confidence": 0.8,
    "verified": false,
    "source": "osm_caves",
    "elevation": 850.0
  },
  {
    "id": 2434,
    "name": "Grotte (Pyrénées) (Ariège) alt. 850.0m - montagne",
    "latitude": 42.8706119,
    "longitude": 1.7556132,
    "type": "cave",
    "address": "262 Lieu Dit la Peyregade 09300 Montferrier",
    "confidence": 0.8,
    "verified": true,
    "source": "osm_caves",
    "elevation": 850.0
  },
  {
    "id": 2436,
    "name": "Grotte (Pyrénées) (Ariège) alt. 850.0m - montagne",
    "latitude": 42.7794525,
    "longitude": 1.4551148,
    "type": "cave",
    "address": "Gouffre de Serre de Bège n° 1, Pont de Judze, Auzat, Foix, Ariège, France métropolitaine",
    "confidence": 0.8,
    "verified": false,
    "source": "osm_caves",
    "elevation": 850.0
  },
  {
    "id": 2437,
    "name": "Grotte (Pyrénées) (Ariège) alt. 850.0m - montagne",
    "latitude": 42.8644702,
    "longitude": 1.1739564,
    "type": "cave",
    "address": "Grotte de Noël, D 817, Sindey, Seix, Saint-Girons, Ariège",
    "confidence": 0.8,
    "verified": false,
    "source": "osm_caves",
    "elevation": 850.0
  },
  {
    "id": 2438,
    "name": "Grotte (Pyrénées) (Ariège) alt. 850.0m - montagne",
    "latitude": 42.9777437,
    "longitude": 0.9827788,
    "type": "cave",
    "address": "Gouffre d'Uchau n° 1, B22, Balagué, Balaguères, Saint-Girons, Ariège",
    "confidence": 0.8,
    "verified": false,
    "source": "osm_caves",
    "elevation": 850.0
  },
  {
    "id": 2439,
    "name": "Grotte (Pyrénées) (Ariège) alt. 850.0m - montagne",
    "latitude": 42.7816756,
    "longitude": 1.7409823,
    "type": "cave",
    "address": "Grotte de la Cassagne, Chemin de Betsaneillas, Axiat, Foix, Ariège, France métropolitaine",
    "confidence": 0.8,
    "verified": false,
    "source": "osm_caves",
    "elevation": 850.0
  },
  {
    "id": 2440,
    "name": "Grotte (Pyrénées) (Ariège) alt. 850.0m - montagne",
    "latitude": 42.9883731,
    "longitude": 1.4454115,
    "type": "cave",
    "address": "Grotte de Ferrobach, D 15, Nescus, Saint-Girons, Ariège, France métropolitaine",
    "confidence": 0.8,
    "verified": false,
    "source": "osm_caves",
    "elevation": 850.0
  },
  {
    "id": 2441,
    "name": "Grotte (Pyrénées) (Ariège) alt. 850.0m - montagne",
    "latitude": 42.9984981,
    "longitude": 1.0196444,
    "type": "cave",
    "address": "Gouffre d'Haïou, Chemin noir, Cazavet, Saint-Girons, Ariège, France métropolitaine",
    "confidence": 0.8,
    "verified": false,
    "source": "osm_caves",
    "elevation": 850.0
  },
  {
    "id": 2442,
    "name": "Grotte (Pyrénées) (Ariège) alt. 850.0m - montagne",
    "latitude": 42.7702966,
    "longitude": 1.1283943,
    "type": "cave",
    "address": "Gouffre Eole, D 703, Faup, Seix, Saint-Girons, Ariège",
    "confidence": 0.8,
    "verified": false,
    "source": "osm_caves",
    "elevation": 850.0
  },
  {
    "id": 2443,
    "name": "Grotte (Pyrénées) (Ariège) alt. 850.0m - montagne",
    "latitude": 42.9342131,
    "longitude": 1.153753,
    "type": "cave",
    "address": "Gouffre du Cheval, Route de Sengouagnet, Sengouagneich, Lacourt, Saint-Girons, Ariège",
    "confidence": 0.8,
    "verified": false,
    "source": "osm_caves",
    "elevation": 850.0
  },
  {
    "id": 2444,
    "name": "Grotte (Pyrénées) (Ariège) alt. 850.0m - montagne",
    "latitude": 42.9672501,
    "longitude": 1.0466455,
    "type": "cave",
    "address": "Gouffre de Pique Grane, Route de Sainte-Catherine, Alas, Balagué, Balaguères, Saint-Girons",
    "confidence": 0.8,
    "verified": false,
    "source": "osm_caves",
    "elevation": 850.0
  },
  {
    "id": 2445,
    "name": "Grotte (Pyrénées) (Ariège) alt. 850.0m - montagne",
    "latitude": 42.798234,
    "longitude": 1.4128274,
    "type": "cave",
    "address": "Gouffre du Tonnerre, D 18, Suc-et-Sentenac, Val-de-Sos, Foix, Ariège",
    "confidence": 0.8,
    "verified": false,
    "source": "osm_caves",
    "elevation": 850.0
  },
  {
    "id": 2446,
    "name": "Grotte (Pyrénées) (Ariège) alt. 850.0m - montagne",
    "latitude": 42.9287973,
    "longitude": 1.1434112,
    "type": "cave",
    "address": "Pouts du Soum d'Aruilhe, Chemin de Braquet, Alos, Saint-Girons, Ariège, France métropolitaine",
    "confidence": 0.8,
    "verified": false,
    "source": "osm_caves",
    "elevation": 850.0
  },
  {
    "id": 2447,
    "name": "Grotte (Pyrénées) (Ariège) alt. 850.0m - montagne",
    "latitude": 42.8234292,
    "longitude": 1.5724817,
    "type": "cave",
    "address": "10 Rue du pradet 09400 Génat",
    "confidence": 0.8,
    "verified": true,
    "source": "osm_caves",
    "elevation": 850.0
  },
  {
    "id": 2448,
    "name": "Grotte (Pyrénées) (Ariège) alt. 850.0m - montagne",
    "latitude": 42.8237801,
    "longitude": 1.5620905,
    "type": "cave",
    "address": "Gouffre du Tuc de Goulastre, Route de Génat, Génat, Foix, Ariège, France métropolitaine",
    "confidence": 0.8,
    "verified": false,
    "source": "osm_caves",
    "elevation": 850.0
  },
  {
    "id": 2454,
    "name": "Grotte (Pyrénées) (Ariège) alt. 850.0m - montagne",
    "latitude": 42.7614887,
    "longitude": 2.0920842,
    "type": "cave",
    "address": "Grotte de l'Aguzou, D 118, Aunat, Limoux, Aude, France métropolitaine",
    "confidence": 0.8,
    "verified": false,
    "source": "osm_caves",
    "elevation": 850.0
  },
  {
    "id": 2455,
    "name": "Grotte (Pyrénées) (Ariège) alt. 850.0m - montagne",
    "latitude": 42.8206682,
    "longitude": 1.8655358,
    "type": "cave",
    "address": "Barrenc du Soula del Pinet, Sentier Cathare, Comus, Limoux, Aude, France métropolitaine",
    "confidence": 0.8,
    "verified": false,
    "source": "osm_caves",
    "elevation": 850.0
  },
  {
    "id": 2456,
    "name": "Grotte (Pyrénées) (Ariège) alt. 850.0m - montagne",
    "latitude": 42.8122833,
    "longitude": 2.1248634,
    "type": "cave",
    "address": "Grotte de Jouy, D 107, Massols, Marsa, Limoux, Aude",
    "confidence": 0.8,
    "verified": false,
    "source": "osm_caves",
    "elevation": 850.0
  },
  {
    "id": 2459,
    "name": "Grotte (Pyrénées) (Ariège) alt. 850.0m - montagne",
    "latitude": 42.8857974,
    "longitude": 1.9882411,
    "type": "cave",
    "address": "Aven Gras, Route des Sapins, Roquefeuil, Limoux, Aude, France métropolitaine",
    "confidence": 0.8,
    "verified": false,
    "source": "osm_caves",
    "elevation": 850.0
  },
  {
    "id": 2461,
    "name": "Grotte (Pyrénées) (Ariège) alt. 850.0m - montagne",
    "latitude": 42.9723335,
    "longitude": 1.0449419,
    "type": "cave",
    "address": "Gouffre de la Quéro Maladido, Route de Sainte-Catherine, Alas, Balagué, Balaguères, Saint-Girons",
    "confidence": 0.8,
    "verified": false,
    "source": "osm_caves",
    "elevation": 850.0
  },
  {
    "id": 2462,
    "name": "Grotte (Pyrénées) (Ariège) alt. 850.0m - montagne",
    "latitude": 42.9724249,
    "longitude": 1.0621617,
    "type": "cave",
    "address": "Gouffre de Lesque, Route de Lique, Goue en Dessous, Moulis, Saint-Girons, Ariège",
    "confidence": 0.8,
    "verified": false,
    "source": "osm_caves",
    "elevation": 850.0
  },
  {
    "id": 2463,
    "name": "Grotte (Pyrénées) (Ariège) alt. 850.0m - montagne",
    "latitude": 42.958971,
    "longitude": 1.0908442,
    "type": "cave",
    "address": "12 Route de Montfaucon 09200 Moulis",
    "confidence": 0.8,
    "verified": true,
    "source": "osm_caves",
    "elevation": 850.0
  },
  {
    "id": 2464,
    "name": "Grotte (Pyrénées) (Ariège) alt. 850.0m - montagne",
    "latitude": 42.96704,
    "longitude": 0.9952631,
    "type": "cave",
    "address": "Gouffre de la Riouère, B22, Balagué, Balaguères, Saint-Girons, Ariège",
    "confidence": 0.8,
    "verified": false,
    "source": "osm_caves",
    "elevation": 850.0
  },
  {
    "id": 2466,
    "name": "Grotte (Pyrénées) (Ariège) alt. 850.0m - montagne",
    "latitude": 42.9874935,
    "longitude": 1.0431793,
    "type": "cave",
    "address": "Puits de Balech, Chemin de Loubens, Cazaux, Cazavet, Saint-Girons, Ariège",
    "confidence": 0.8,
    "verified": false,
    "source": "osm_caves",
    "elevation": 850.0
  },
  {
    "id": 2467,
    "name": "Grotte (Pyrénées) (Ariège) alt. 850.0m - montagne",
    "latitude": 42.9567294,
    "longitude": 0.9247184,
    "type": "cave",
    "address": "Puits de Tussau, Sentier du Pic de Granous, Herran, Saint-Gaudens, Haute-Garonne, France métropolitaine",
    "confidence": 0.8,
    "verified": false,
    "source": "osm_caves",
    "elevation": 850.0
  },
  {
    "id": 2468,
    "name": "Grotte (Pyrénées) (Ariège) alt. 850.0m - montagne",
    "latitude": 42.7910879,
    "longitude": 1.8356562,
    "type": "cave",
    "address": "Gouffre de Castillou, Chemin de la Gardie, Prades, Foix, Ariège, France métropolitaine",
    "confidence": 0.8,
    "verified": false,
    "source": "osm_caves",
    "elevation": 850.0
  },
  {
    "id": 2469,
    "name": "Grotte (Pyrénées) (Ariège) alt. 850.0m - montagne",
    "latitude": 42.9308442,
    "longitude": 1.156907,
    "type": "cave",
    "address": "Cigalère des Trinquets, Route de Sengouagnet, Sengouagneich, Lacourt, Saint-Girons, Ariège",
    "confidence": 0.8,
    "verified": false,
    "source": "osm_caves",
    "elevation": 850.0
  },
  {
    "id": 2471,
    "name": "Grotte (Pyrénées) (Ariège) alt. 850.0m - montagne",
    "latitude": 42.8108646,
    "longitude": 1.6449823,
    "type": "cave",
    "address": "Grotte de Fontanet, N 20, Ornolac-Ussat-les-Bains, Foix, Ariège, France métropolitaine",
    "confidence": 0.8,
    "verified": false,
    "source": "osm_caves",
    "elevation": 850.0
  },
  {
    "id": 2472,
    "name": "Grotte (Pyrénées) (Ariège) alt. 850.0m - montagne",
    "latitude": 42.7411837,
    "longitude": 1.1377527,
    "type": "cave",
    "address": "Gouffre du Pylône, Chemin du Port de Salau, Couflens, Saint-Girons, Ariège, France métropolitaine",
    "confidence": 0.8,
    "verified": false,
    "source": "osm_caves",
    "elevation": 850.0
  },
  {
    "id": 2473,
    "name": "Grotte (Pyrénées) (Ariège) alt. 850.0m - montagne",
    "latitude": 42.9505231,
    "longitude": 1.134532,
    "type": "cave",
    "address": "Gouffre Degaudez, Route de Saudech, Parat, Saint-Girons, Ariège, France métropolitaine",
    "confidence": 0.8,
    "verified": false,
    "source": "osm_caves",
    "elevation": 850.0
  },
  {
    "id": 2474,
    "name": "Grotte (Pyrénées) (Ariège) alt. 850.0m - montagne",
    "latitude": 42.950107,
    "longitude": 1.1398644,
    "type": "cave",
    "address": "Gouffre du Grand Plagnol, Route de Saudech, Parat, Saint-Girons, Ariège, France métropolitaine",
    "confidence": 0.8,
    "verified": false,
    "source": "osm_caves",
    "elevation": 850.0
  },
  {
    "id": 2475,
    "name": "Grotte (Pyrénées) (Ariège) alt. 850.0m - montagne",
    "latitude": 42.8144333,
    "longitude": 1.1385527,
    "type": "cave",
    "address": "Grotte de Bordes de Crues, D 703, Faup, Seix, Saint-Girons, Ariège",
    "confidence": 0.8,
    "verified": false,
    "source": "osm_caves",
    "elevation": 850.0
  },
  {
    "id": 2476,
    "name": "Grotte (Pyrénées) (Ariège) alt. 850.0m - montagne",
    "latitude": 42.9737746,
    "longitude": 0.9877753,
    "type": "cave",
    "address": "Poudac de la Gargale, B22, Balagué, Balaguères, Saint-Girons, Ariège",
    "confidence": 0.8,
    "verified": false,
    "source": "osm_caves",
    "elevation": 850.0
  },
  {
    "id": 2477,
    "name": "Grotte (Pyrénées) (Ariège) alt. 850.0m - montagne",
    "latitude": 42.9437293,
    "longitude": 1.110948,
    "type": "cave",
    "address": "Grotte du Portillon, D 137, Legerge, Moulis, Saint-Girons, Ariège",
    "confidence": 0.8,
    "verified": false,
    "source": "osm_caves",
    "elevation": 850.0
  },
  {
    "id": 2478,
    "name": "Grotte (Pyrénées) (Ariège) alt. 850.0m - montagne",
    "latitude": 42.9740373,
    "longitude": 1.0655501,
    "type": "cave",
    "address": "Puits de Chaou Marti, Route de Lique, Goue en Dessous, Moulis, Saint-Girons, Ariège",
    "confidence": 0.8,
    "verified": false,
    "source": "osm_caves",
    "elevation": 850.0
  },
  {
    "id": 2479,
    "name": "Grotte (Pyrénées) (Ariège) alt. 850.0m - montagne",
    "latitude": 42.8119429,
    "longitude": 1.0089133,
    "type": "cave",
    "address": "Gouffre du Pourtillou n° 14, Voie Decauville, Bonac-Irazein, Saint-Girons, Ariège, France métropolitaine",
    "confidence": 0.8,
    "verified": false,
    "source": "osm_caves",
    "elevation": 850.0
  },
  {
    "id": 2481,
    "name": "Grotte (Pyrénées) (Ariège) alt. 850.0m - montagne",
    "latitude": 42.8102698,
    "longitude": 1.0091766,
    "type": "cave",
    "address": "Gouffre du Pourtillou n° 2, Voie Decauville, Bonac-Irazein, Saint-Girons, Ariège, France métropolitaine",
    "confidence": 0.8,
    "verified": false,
    "source": "osm_caves",
    "elevation": 850.0
  },
  {
    "id": 2482,
    "name": "Grotte (Pyrénées) (Ariège) alt. 850.0m - montagne",
    "latitude": 42.9738923,
    "longitude": 1.0676524,
    "type": "cave",
    "address": "Poudac de Chaou Marti, Route de Lique, Goue en Dessous, Moulis, Saint-Girons, Ariège",
    "confidence": 0.8,
    "verified": false,
    "source": "osm_caves",
    "elevation": 850.0
  },
  {
    "id": 2483,
    "name": "Grotte (Pyrénées) (Ariège) alt. 850.0m - montagne",
    "latitude": 42.8123928,
    "longitude": 1.3648832,
    "type": "cave",
    "address": "Gouffre VM11, D 8F, Le Port, Saint-Girons, Ariège, France métropolitaine",
    "confidence": 0.8,
    "verified": false,
    "source": "osm_caves",
    "elevation": 850.0
  },
  {
    "id": 2484,
    "name": "Grotte (Pyrénées) (Ariège) alt. 850.0m - montagne",
    "latitude": 42.8100788,
    "longitude": 1.3656374,
    "type": "cave",
    "address": "Gouffre P6, D 8F, Le Port, Saint-Girons, Ariège, France métropolitaine",
    "confidence": 0.8,
    "verified": false,
    "source": "osm_caves",
    "elevation": 850.0
  },
  {
    "id": 2487,
    "name": "Grotte (Pyrénées) (Ariège) alt. 850.0m - montagne",
    "latitude": 42.7993898,
    "longitude": 1.4155989,
    "type": "cave",
    "address": "Trou Marc, D 18, Suc-et-Sentenac, Val-de-Sos, Foix, Ariège",
    "confidence": 0.8,
    "verified": false,
    "source": "osm_caves",
    "elevation": 850.0
  },
  {
    "id": 2488,
    "name": "Grotte (Pyrénées) (Ariège) alt. 850.0m - montagne",
    "latitude": 42.7859444,
    "longitude": 1.4083656,
    "type": "cave",
    "address": "Gouffre de la Lune, D 8F, Aulus-les-Bains, Saint-Girons, Ariège, France métropolitaine",
    "confidence": 0.8,
    "verified": false,
    "source": "osm_caves",
    "elevation": 850.0
  },
  {
    "id": 2489,
    "name": "Grotte (Pyrénées) (Ariège) alt. 850.0m - montagne",
    "latitude": 42.805044,
    "longitude": 1.3693508,
    "type": "cave",
    "address": "Le Tube (entrée artificielle), D 8F, Le Port, Saint-Girons, Ariège, France métropolitaine",
    "confidence": 0.8,
    "verified": false,
    "source": "osm_caves",
    "elevation": 850.0
  },
  {
    "id": 2490,
    "name": "Grotte (Pyrénées) (Ariège) alt. 850.0m - montagne",
    "latitude": 42.8046756,
    "longitude": 1.368731,
    "type": "cave",
    "address": "Gouffre des Feuilles Mortes, D 8F, Le Port, Saint-Girons, Ariège, France métropolitaine",
    "confidence": 0.8,
    "verified": false,
    "source": "osm_caves",
    "elevation": 850.0
  },
  {
    "id": 2491,
    "name": "Grotte (Pyrénées) (Ariège) alt. 850.0m - montagne",
    "latitude": 42.8198391,
    "longitude": 0.8874853,
    "type": "cave",
    "address": "Gouffre Martel, Les Clouzats, Eylie d'en Haut, Sentein, Saint-Girons, Ariège",
    "confidence": 0.8,
    "verified": false,
    "source": "osm_caves",
    "elevation": 850.0
  },
  {
    "id": 2492,
    "name": "Grotte (Pyrénées) (Ariège) alt. 850.0m - montagne",
    "latitude": 42.8271546,
    "longitude": 0.9071024,
    "type": "cave",
    "address": "Grotte de la Cigalère, Les Clouzats, Eylie d'en Haut, Sentein, Saint-Girons, Ariège",
    "confidence": 0.8,
    "verified": false,
    "source": "osm_caves",
    "elevation": 850.0
  },
  {
    "id": 2507,
    "name": "Grotte (Pyrénées) (Ariège) alt. 850.0m - montagne",
    "latitude": 42.6299246,
    "longitude": 1.120928,
    "type": "cave",
    "address": "Forat de la Guineu, Avinguda del Port de la Bonaigua, la Colònia, Esterri d'Àneu, Pallars Sobirà, Lleida",
    "confidence": 0.8,
    "verified": false,
    "source": "osm_caves",
    "elevation": 850.0
  },
  {
    "id": 2510,
    "name": "Grotte (Pyrénées) (Ariège) alt. 850.0m - montagne",
    "latitude": 42.9790599,
    "longitude": 0.8664605,
    "type": "cave",
    "address": "Hount Deras Hechos, Sentier des Chèvres, Herran, Saint-Gaudens, Haute-Garonne, France métropolitaine",
    "confidence": 0.8,
    "verified": false,
    "source": "osm_caves",
    "elevation": 850.0
  },
  {
    "id": 2513,
    "name": "Grotte (Pyrénées) (Ariège) alt. 850.0m - montagne",
    "latitude": 42.8365189,
    "longitude": 1.5971576,
    "type": "cave",
    "address": "Usine de Sabart 09400 Quié",
    "confidence": 0.8,
    "verified": true,
    "source": "osm_caves",
    "elevation": 850.0
  },
  {
    "id": 2514,
    "name": "Grotte (Pyrénées) (Ariège) alt. 850.0m - montagne",
    "latitude": 42.8358795,
    "longitude": 1.5971465,
    "type": "cave",
    "address": "Usine de Sabart 09400 Quié",
    "confidence": 0.8,
    "verified": true,
    "source": "osm_caves",
    "elevation": 850.0
  },
  {
    "id": 2515,
    "name": "Grotte (Pyrénées) (Ariège) alt. 850.0m - montagne",
    "latitude": 42.8362255,
    "longitude": 1.596411,
    "type": "cave",
    "address": "Sakany Accident, Chemin de Sakanie, Quié, Foix, Ariège, France métropolitaine",
    "confidence": 0.8,
    "verified": false,
    "source": "osm_caves",
    "elevation": 850.0
  },
  {
    "id": 2516,
    "name": "Grotte (Pyrénées) (Ariège) alt. 850.0m - montagne",
    "latitude": 42.8813814,
    "longitude": 1.979631,
    "type": "cave",
    "address": "Trou du Vent du Pédrou (P14), D 16, Bélesta, Pamiers, Ariège, France métropolitaine",
    "confidence": 0.8,
    "verified": false,
    "source": "osm_caves",
    "elevation": 850.0
  },
  {
    "id": 2517,
    "name": "Grotte (Pyrénées) (Ariège) alt. 850.0m - montagne",
    "latitude": 42.8882788,
    "longitude": 1.9304568,
    "type": "cave",
    "address": "Gouffre de las Goffias, D 16, Le Casteillat, Bélesta, Pamiers, Ariège",
    "confidence": 0.8,
    "verified": false,
    "source": "osm_caves",
    "elevation": 850.0
  },
  {
    "id": 2518,
    "name": "Grotte (Pyrénées) (Ariège) alt. 850.0m - montagne",
    "latitude": 42.8733927,
    "longitude": 1.950485,
    "type": "cave",
    "address": "Soury 09300 Bélesta",
    "confidence": 0.8,
    "verified": true,
    "source": "osm_caves",
    "elevation": 850.0
  },
  {
    "id": 2525,
    "name": "Grotte (Pyrénées) (Ariège) alt. 850.0m - montagne",
    "latitude": 42.9345583,
    "longitude": 0.9056737,
    "type": "cave",
    "address": "Site de spéléologie Résurgence d'Artigueprat, Route de Portet d'Aspet, Orchein, Galey, Saint-Girons, Ariège",
    "confidence": 0.8,
    "verified": false,
    "source": "osm_caves",
    "elevation": 850.0
  },
  {
    "id": 2530,
    "name": "Grotte (Pyrénées) (Ariège) alt. 850.0m - montagne",
    "latitude": 42.7220468,
    "longitude": 1.9856272,
    "type": "cave",
    "address": "Gouffre du Mounégou, GR7B, Mijanès, Foix, Ariège, France métropolitaine",
    "confidence": 0.8,
    "verified": false,
    "source": "osm_caves",
    "elevation": 850.0
  },
  {
    "id": 2552,
    "name": "Grotte (Pyrénées) (Ariège) alt. 850.0m - montagne",
    "latitude": 42.9809632,
    "longitude": 0.8974148,
    "type": "cave",
    "address": "1 Chemin de Gourgue 31160 Arbas",
    "confidence": 0.8,
    "verified": true,
    "source": "osm_caves",
    "elevation": 850.0
  },
  {
    "id": 2553,
    "name": "Grotte (Pyrénées) (Ariège) alt. 850.0m - montagne",
    "latitude": 42.9798967,
    "longitude": 0.8766309,
    "type": "cave",
    "address": "Grotte de Pène Blanque, Sentier des Chèvres, Herran, Saint-Gaudens, Haute-Garonne, France métropolitaine",
    "confidence": 0.8,
    "verified": false,
    "source": "osm_caves",
    "elevation": 850.0
  },
  {
    "id": 2555,
    "name": "Grotte (Pyrénées) (Ariège) alt. 850.0m - montagne",
    "latitude": 42.904097,
    "longitude": 1.711549,
    "type": "cave",
    "address": "464 Chemin du Moulin 09300 Freychenet",
    "confidence": 0.8,
    "verified": true,
    "source": "osm_caves",
    "elevation": 850.0
  },
  {
    "id": 2556,
    "name": "Grotte (Pyrénées) (Ariège) alt. 850.0m - montagne",
    "latitude": 42.8272231,
    "longitude": 1.24761,
    "type": "cave",
    "address": "Poutz de la Ruguero, Chemin de Ruguère Bouno, Es Côts, Le Trein d'Ustou, Ustou, Saint-Girons",
    "confidence": 0.8,
    "verified": false,
    "source": "osm_caves",
    "elevation": 850.0
  },
  {
    "id": 2564,
    "name": "Grotte (Pyrénées) (Ariège) alt. 850.0m - montagne",
    "latitude": 42.7573102,
    "longitude": 2.0869113,
    "type": "cave",
    "address": "Grotte du TM71, D 118, Fontanès-de-Sault, Limoux, Aude, France métropolitaine",
    "confidence": 0.8,
    "verified": false,
    "source": "osm_caves",
    "elevation": 850.0
  },